timestamp,time_utc_usec,lat,lon,alt,alt_ellipsoid,s_variance_m_s,c_variance_rad,eph,epv,hdop,vdop,noise_per_ms,jamming_indicator,vel_m_s,vel_n_m_s,vel_e_m_s,vel_d_m_s,cog_rad,timestamp_time_relative,diff_age,fix_type,vel_ned_valid,satellites_used
226470620,1599740320599733,568881506,98648061,1749,44300,0.264,0.65099645,0.83800006,0.94600004,0.53,0.76,104,42,0.078,0.07,0.036000002,0.64100003,4.834502,0,0.0,4,1,24
226664352,1599740320799733,568881514,98648060,1701,44253,0.193,0.40573877,0.83000004,0.93700004,0.53,0.76,104,42,0.48400003,0.48200002,0.042000003,0.143,5.9398813,0,0.0,4,1,24
226902678,1599740320999734,568881526,98648045,1738,44289,0.18,0.18841107,0.82100004,0.929,0.53,0.76,104,42,1.062,0.61800003,-0.864,-0.068,5.4408617,0,0.0,4,1,24
227070558,1599740321199733,568881544,98647986,1725,44277,0.18800001,0.062051862,0.81100005,0.92100006,0.53,0.76,103,47,2.785,1.0660001,-2.5730002,0.178,5.1379476,0,0.0,4,1,24
227264352,1599740321399733,568881585,98647841,1912,44463,0.165,0.023770161,0.8,0.91200006,0.53,0.76,103,47,6.905,3.2700002,-6.0810003,-1.741,5.1978483,0,0.0,4,1,24
227460905,1599740321599733,568881646,98647650,2514,45065,0.178,0.025642201,0.79,0.90400004,0.53,0.76,103,47,6.479,3.3240001,-5.5620003,-3.9240003,5.2296863,0,0.0,4,1,24
227666370,1599740321799733,568881712,98647462,3376,45927,0.17500001,0.02378517,0.78000003,0.89500004,0.53,0.76,103,47,6.9680004,3.7350001,-5.8820004,-4.485,5.278144,0,0.0,4,1,24
227906766,1599740321999734,568881785,98647257,4088,46639,0.16600001,0.021188645,0.771,0.8880001,0.53,0.76,96,59,7.827,4.2190003,-6.5930004,-2.7340002,5.281664,0,0.0,4,1,24
228074706,1599740322199733,568881866,98647031,4569,47121,0.165,0.019326553,0.763,0.88100004,0.53,0.76,96,59,8.569,4.651,-7.1970005,-1.9460001,5.2860894,0,0.0,4,1,24
228266744,1599740322399733,568881948,98646786,4907,47458,0.17,0.018931411,0.75600004,0.87500006,0.53,0.76,96,59,8.971001,4.5010004,-7.76,-1.488,5.237956,0,0.0,4,1,24
228466383,1599740322599733,568882029,98646524,5257,47808,0.17300001,0.018179348,0.749,0.869,0.53,0.76,96,59,9.331,4.428,-8.214001,-2.1100001,5.206854,0,0.0,4,1,24
228676244,1599740322799733,568882112,98646255,5862,48414,0.16900001,0.017194634,0.74200004,0.86300004,0.53,0.76,96,59,9.501,4.696,-8.259001,-3.7970002,5.229452,0,0.0,4,1,24
228896518,1599740322999734,568882193,98645980,6772,49324,0.17400001,0.016796349,0.735,0.85700005,0.53,0.76,96,59,9.641001,4.263,-8.647,-4.919,5.1704135,0,0.0,4,1,24
229067393,1599740323199733,568882270,98645689,7734,50286,0.172,0.01591775,0.72800004,0.851,0.53,0.76,96,63,10.077001,4.237,-9.144,-4.5860004,5.146301,0,0.0,4,1,24
229253838,1599740323399733,568882351,98645383,8609,51160,0.171,0.015274248,0.72200006,0.845,0.53,0.76,96,63,10.586,4.73,-9.47,-4.1870003,5.1756206,0,0.0,4,1,24
229476362,1599740323599733,568882443,98645071,9369,51920,0.171,0.015190821,0.716,0.84000003,0.53,0.76,96,63,11.045,5.485,-9.587001,-3.5140002,5.2320127,0,0.0,4,1,24
229664352,1599740323799733,568882543,98644753,10087,52638,0.18200001,0.015018557,0.711,0.836,0.53,0.76,96,63,11.346001,5.6910005,-9.816001,-3.7960002,5.2377796,0,0.0,4,1,24
229879354,1599740323999734,568882642,98644424,10805,53357,0.16700001,0.01392249,0.70500004,0.83100003,0.53,0.76,96,63,11.581,5.3430004,-10.274,-3.3700001,5.1919656,0,0.0,4,1,24
230055355,1599740324199733,568882739,98644088,11585,54136,0.30200002,0.022194304,0.707,0.83300006,0.53,0.76,78,26,11.642,5.5410004,-10.238001,-4.4560003,5.2084827,0,0.0,4,1,24
230262088,1599740324399733,568882839,98643753,12609,55160,0.303,0.022433413,0.711,0.836,0.53,0.76,78,26,11.589001,5.5680003,-10.1640005,-5.781,5.2135787,0,0.0,4,1,24
230456348,1599740324599733,568882939,98643416,13642,56194,0.259,0.020560151,0.71400005,0.83800006,0.53,0.76,78,26,11.895,5.611,-10.488001,-4.6140003,5.203611,0,0.0,4,1,24
230655432,1599740324799733,568883039,98643068,14562,57114,0.25500003,0.020453686,0.717,0.84000003,0.53,0.76,78,26,12.092001,5.493,-10.772,-4.5090003,5.1839857,0,0.0,4,1,24
230883695,1599740324999734,568883141,98642720,15520,58072,0.25300002,0.0201781,0.71900004,0.841,0.53,0.76,78,26,12.030001,5.8560004,-10.508,-4.9490004,5.2208214,0,0.0,4,1,24
231055691,1599740325199733,568883245,98642375,16550,59102,0.23600002,0.018701376,0.72,0.841,0.53,0.76,72,28,12.003,5.728,-10.547001,-5.294,5.2099285,0,0.0,4,1,24
231256358,1599740325399733,568883346,98642029,17668,60220,0.22100002,0.015902393,0.71900004,0.84000003,0.53,0.76,72,28,11.945001,5.452,-10.629001,-5.6650004,5.1863146,0,0.0,4,1,24
231462082,1599740325599733,568883445,98641684,18911,61463,0.21400002,0.016014267,0.717,0.83800006,0.53,0.76,72,28,11.790001,5.4030004,-10.4800005,-6.431,5.1884,0,0.0,4,1,24
231661488,1599740325799733,568883545,98641344,20191,62742,0.21300001,0.01596278,0.716,0.837,0.53,0.76,72,28,11.811001,5.6210003,-10.387,-6.0860004,5.208437,0,0.0,4,1,24
231867629,1599740325999734,568883647,98641006,21410,63962,0.202,0.015176335,0.71300006,0.83500004,0.53,0.76,72,28,11.711,5.6190004,-10.275001,-5.9960003,5.212799,0,0.0,4,1,24
232060353,1599740326199733,568883747,98640670,22650,65201,0.21000001,0.015663281,0.711,0.83300006,0.53,0.76,72,28,11.561001,5.5020003,-10.168,-6.379,5.2083344,0,0.0,4,1,24
232275507,1599740326399733,568883846,98640337,23906,66457,0.209,0.015677594,0.70900005,0.83100003,0.53,0.76,72,28,11.536,5.512,-10.133,-6.247,5.210603,0,0.0,4,1,24
232445681,1599740326599733,568883945,98640005,25119,67671,0.209,0.015830833,0.70600003,0.82900006,0.53,0.76,72,28,11.404,5.4540005,-10.015,-6.037,5.211115,0,0.0,4,1,24
232659637,1599740326799733,568884043,98639674,26288,68840,0.208,0.015668344,0.70400006,0.82600003,0.53,0.76,72,28,11.522,5.479,-10.135,-5.7650003,5.207981,0,0.0,4,1,24
232882368,1599740326999734,568884142,98639342,27388,69940,0.208,0.015691033,0.702,0.82400006,0.53,0.76,72,28,11.493001,5.53,-10.076,-5.3570004,5.214327,0,0.0,4,1,24
233045549,1599740327199733,568884241,98639011,28439,70991,0.25300002,0.018779917,0.702,0.82400006,0.53,0.76,72,26,11.498,5.4940004,-10.1,-5.282,5.2106028,0,0.0,4,1,24
233261538,1599740327399733,568884340,98638675,29439,71991,0.193,0.0148223825,0.70000005,0.82100004,0.53,0.76,72,26,11.619,5.4220004,-10.277,-4.735,5.1978765,0,0.0,4,1,24
233462354,1599740327599733,568884439,98638331,30244,72796,0.19500001,0.014770895,0.697,0.818,0.53,0.76,72,26,12.019001,5.6000004,-10.634001,-3.361,5.19707,0,0.0,4,1,24
233659382,1599740327799733,568884540,98637975,30786,73338,0.18100001,0.013972058,0.694,0.814,0.53,0.76,72,26,12.477,5.6000004,-11.150001,-2.0530002,5.1778045,0,0.0,4,1,24
233881134,1599740327999734,568884644,98637602,31078,73629,0.18200001,0.013090143,0.69100004,0.81100005,0.53,0.76,72,26,13.052001,5.94,-11.622001,-0.74200004,5.1848984,0,0.0,4,1,24
234060355,1599740328199733,568884754,98637216,31047,73599,0.18400002,0.012756087,0.688,0.80700004,0.53,0.76,73,27,13.428,6.157,-11.933001,0.827,5.1886973,0,0.0,4,1,24
234266894,1599740328399733,568884866,98636816,30801,73353,0.20300001,0.014742097,0.68600005,0.80600005,0.53,0.76,73,27,13.904,6.314,-12.387001,1.3970001,5.1838,0,0.0,4,1,24
234464388,1599740328599733,568884983,98636397,30567,73119,0.17500001,0.011596316,0.683,0.80200005,0.53,0.76,73,27,14.662001,6.499,-13.143001,0.95000005,5.1716366,0,0.0,4,1,24
234650705,1599740328799733,568885100,98635954,30338,72890,0.16900001,0.011080222,0.679,0.79800004,0.53,0.76,73,27,15.192,6.4040003,-13.776001,1.1880001,5.1475472,0,0.0,4,1,24
234889238,1599740328999734,568885218,98635494,30120,72671,0.16700001,0.01059345,0.675,0.795,0.53,0.76,73,27,15.713,6.5950003,-14.262001,0.84900004,5.1455326,0,0.0,4,1,24
235067521,1599740329199733,568885339,98635017,30012,72564,0.16900001,0.010124305,0.67200005,0.791,0.53,0.76,73,27,16.253,6.6720004,-14.821001,0.321,5.135417,0,0.0,4,1,24
235264354,1599740329399733,568885461,98634522,29965,72516,0.16600001,0.009959895,0.66800004,0.78800005,0.53,0.76,73,27,16.744001,6.7580004,-15.320001,0.106000006,5.1278596,0,0.0,4,1,24
235469125,1599740329599733,568885583,98634016,29961,72513,0.17,0.009674534,0.665,0.785,0.53,0.76,73,27,16.931002,6.655,-15.568001,-0.07,5.1163597,0,0.0,4,1,24
235662352,1599740329799733,568885694,98633490,30091,72643,0.193,0.009241168,0.66200006,0.78000003,0.53,0.76,73,27,17.338001,5.571,-16.418001,-1.3330001,5.039492,0,0.0,4,1,24
235889506,1599740329999734,568885785,98632947,30378,72930,0.187,0.008763123,0.65800005,0.77300006,0.53,0.76,73,27,17.320002,4.3570004,-16.763,-1.368,4.96668,0,0.0,4,1,24
236068409,1599740330199733,568885853,98632391,30691,73242,0.187,0.009541016,0.65500003,0.77000004,0.53,0.76,79,26,17.438002,3.1160002,-17.158,-1.7070001,4.8920164,0,0.0,4,1,24
236261657,1599740330399734,568885901,98631826,31066,73618,0.185,0.009423207,0.65400004,0.767,0.53,0.76,79,26,17.442001,2.183,-17.305,-1.8520001,4.8378763,0,0.0,4,1,24
236462348,1599740330599734,568885930,98631259,31537,74089,0.20700002,0.010285574,0.65300006,0.76500005,0.53,0.76,79,26,17.398,0.90000004,-17.374,-2.457,4.764171,0,0.0,4,1,24
236644542,1599740330799734,568885939,98630688,32067,74619,0.19700001,0.010666405,0.652,0.763,0.53,0.76,79,26,17.425001,0.021000002,-17.425001,-2.7480001,4.7135673,0,0.0,4,1,24
236880354,1599740330999735,568885940,98630117,32478,75030,0.19900002,0.010363416,0.652,0.762,0.53,0.76,79,26,17.45,0.07700001,-17.45,-1.4260001,4.7168097,0,0.0,4,1,24
237073869,1599740331199734,568885937,98629543,32752,75304,0.19900002,0.010366731,0.652,0.76100004,0.53,0.76,85,25,17.545,-0.537,-17.537,-1.3360001,4.6818037,0,0.0,4,1,24
237264356,1599740331399734,568885923,98628967,32990,75542,0.21000001,0.011468558,0.652,0.76100004,0.53,0.76,85,25,17.635,-0.98700005,-17.607,-1.1060001,4.65637,0,0.0,4,1,24
237466656,1599740331599734,568885902,98628388,33095,75646,0.20400001,0.011330328,0.65300006,0.762,0.53,0.76,85,25,17.646,-1.3690001,-17.593,-0.257,4.634707,0,0.0,4,1,24
237673931,1599740331799734,568885874,98627809,33096,75648,0.20400001,0.011285822,0.65300006,0.762,0.53,0.76,85,25,17.694,-1.7080001,-17.611,-0.069000006,4.615688,0,0.0,4,1,24
237892351,1599740331999735,568885840,98627231,33058,75610,0.20400001,0.011269939,0.65400004,0.763,0.53,0.76,85,25,17.707,-2.0300002,-17.59,0.15400001,4.597505,0,0.0,4,1,24
238063356,1599740332199734,568885800,98626654,33031,75583,0.2,0.011073764,0.65400004,0.76400006,0.53,0.76,85,24,17.694,-2.5080001,-17.515001,-0.287,4.5701637,0,0.0,4,1,24
238273858,1599740332399734,568885753,98626080,33087,75639,0.201,0.011208853,0.65400004,0.76500005,0.53,0.76,85,24,17.638,-2.676,-17.433,-0.46600002,4.5600615,0,0.0,4,1,24
238467676,1599740332599734,568885702,98625509,33134,75686,0.19800001,0.010963634,0.65400004,0.76500005,0.53,0.76,85,24,17.549002,-2.9340003,-17.302,-0.44500002,4.5444145,0,0.0,4,1,24
238668350,1599740332799734,568885647,98624946,33231,75783,0.19900002,0.011311304,0.65300006,0.76500005,0.53,0.76,85,24,17.286001,-3.2070003,-16.986,-0.693,4.52576,0,0.0,4,1,24
238887391,1599740332999735,568885589,98624390,33405,75957,0.18800001,0.009813113,0.652,0.76400006,0.53,0.76,85,24,17.215,-3.4150002,-16.872002,-1.138,4.5127068,0,0.0,4,1,24
239067391,1599740333199734,568885527,98623841,33650,76203,0.21100001,0.012337034,0.652,0.76400006,0.53,0.76,91,21,16.959002,-3.5330002,-16.587,-1.475,4.502512,0,0.0,4,1,24
239263572,1599740333399734,568885463,98623304,33952,76504,0.209,0.012221493,0.65300006,0.76500005,0.53,0.76,91,21,16.619001,-3.706,-16.201,-1.585,4.487497,0,0.0,4,1,24
239461666,1599740333599734,568885396,98622777,34272,76824,0.209,0.01257754,0.65300006,0.76500005,0.53,0.76,91,21,16.341002,-3.713,-15.9140005,-1.7820001,4.48318,0,0.0,4,1,24
239665957,1599740333799734,568885331,98622261,34627,77180,0.20300001,0.012534954,0.65400004,0.76500005,0.53,0.76,91,21,15.987,-3.647,-15.566001,-1.764,4.482259,0,0.0,4,1,24
239895416,1599740333999735,568885265,98621757,34983,77535,0.202,0.012759753,0.65400004,0.76500005,0.53,0.76,91,21,15.700001,-3.7470002,-15.246,-1.741,4.471367,0,0.0,4,1,24
240053686,1599740334199734,568885197,98621264,35326,77878,0.202,0.0130006075,0.65400004,0.76500005,0.53,0.76,91,24,15.440001,-3.8470001,-14.953001,-1.5710001,4.4605584,0,0.0,4,1,24
240267547,1599740334399734,568885128,98620779,35573,78126,0.193,0.01289135,0.65400004,0.76400006,0.53,0.76,91,24,15.154,-3.9220002,-14.6380005,-0.99200004,4.4505816,0,0.0,4,1,24
240466460,1599740334599734,568885058,98620303,35804,78356,0.201,0.013423152,0.65400004,0.76400006,0.53,0.76,91,24,14.9140005,-3.9450002,-14.383,-1.5610001,4.4447055,0,0.0,4,1,24
240675722,1599740334799734,568884989,98619836,36047,78599,0.201,0.013749878,0.65400004,0.76400006,0.53,0.76,91,24,14.545001,-3.805,-14.0390005,-1.212,4.4476957,0,0.0,4,1,24
240879352,1599740334999735,568884923,98619380,36221,78773,0.202,0.013806775,0.65400004,0.763,0.53,0.76,91,24,14.286,-3.6210003,-13.820001,-0.597,4.456126,0,0.0,4,1,24
241065567,1599740335199734,568884861,98618933,36353,78906,0.202,0.014936178,0.65400004,0.763,0.53,0.76,91,26,13.968,-3.3200002,-13.568001,-0.65800005,4.4724054,0,0.0,4,1,24
241253327,1599740335399734,568884798,98618492,36453,79006,0.19900002,0.013864894,0.65400004,0.762,0.53,0.76,91,26,13.978001,-3.8370001,-13.441001,-0.28800002,4.4343076,0,0.0,4,1,24
241467558,1599740335599734,568884730,98618055,36485,79038,0.19800001,0.014150256,0.65400004,0.762,0.53,0.76,91,26,13.76,-3.706,-13.252001,-0.07700001,4.4396677,0,0.0,4,1,24
241667216,1599740335799734,568884666,98617622,36510,79063,0.202,0.014944206,0.65400004,0.762,0.53,0.76,91,26,13.676001,-3.561,-13.205001,-0.23600002,4.4489822,0,0.0,4,1,24
241897191,1599740335999735,568884601,98617192,36506,79059,0.202,0.0150271095,0.65400004,0.762,0.53,0.76,91,26,13.606001,-3.5660002,-13.130001,0.21300001,4.4472275,0,0.0,4,1,24
242065193,1599740336199734,568884537,98616765,36533,79086,0.201,0.015079469,0.65500003,0.762,0.53,0.76,91,25,13.563001,-3.6870003,-13.052001,-0.36900002,4.4370737,0,0.0,4,1,24
242258916,1599740336399734,568884472,98616337,36607,79159,0.201,0.015053115,0.65500003,0.762,0.53,0.76,91,25,13.551001,-3.565,-13.074,-0.555,4.4462037,0,0.0,4,1,24
242474884,1599740336599734,568884415,98615910,36823,79376,0.19600001,0.015094654,0.65500003,0.76100004,0.53,0.76,91,25,13.327001,-2.7770002,-13.035001,-1.7140001,4.5024934,0,0.0,4,1,24
242668402,1599740336799734,568884371,98615485,37292,79845,0.19700001,0.015034614,0.65400004,0.76100004,0.53,0.76,91,25,13.158001,-2.269,-12.960001,-2.8130002,4.539064,0,0.0,4,1,24
242886717,1599740336999735,568884331,98615061,37736,80289,0.19900002,0.015333066,0.65400004,0.76100004,0.53,0.76,91,25,13.191001,-2.161,-13.0130005,-1.6400001,4.547826,0,0.0,4,1,24
243075145,1599740337199734,568884291,98614642,38178,80731,0.19600001,0.014640694,0.65300006,0.758,0.53,0.76,91,23,12.946001,-2.4390001,-12.714001,-2.4450002,4.522893,0,0.0,4,1,24
243270433,1599740337399734,568884246,98614229,38636,81188,0.192,0.014932687,0.65300006,0.757,0.53,0.76,91,23,12.846001,-2.753,-12.548,-2.243,4.4964304,0,0.0,4,1,24
243470361,1599740337599734,568884201,98613824,39208,81761,0.18100001,0.01570517,0.652,0.75600004,0.53,0.76,91,23,12.406,-2.332,-12.185,-3.4970002,4.5233083,0,0.0,4,1,24
243650849,1599740337799734,568884161,98613430,39835,82388,0.18200001,0.016036782,0.652,0.75600004,0.53,0.76,91,23,12.099001,-2.124,-11.911,-2.8370001,4.5358896,0,0.0,4,1,24
243890790,1599740337999735,568884125,98613045,40433,82986,0.18200001,0.01657539,0.652,0.75600004,0.53,0.76,91,23,11.805,-1.9480001,-11.643001,-3.1790001,4.546599,0,0.0,4,1,24
244065524,1599740338199734,568884090,98612665,41076,83628,0.21000001,0.01781981,0.65300006,0.75600004,0.53,0.76,97,24,11.749001,-2.052,-11.568001,-3.2740002,4.5368094,0,0.0,4,1,24
244252209,1599740338399734,568884054,98612291,41772,84325,0.20400001,0.017942857,0.65300006,0.75600004,0.53,0.76,97,24,11.451,-1.9990001,-11.276001,-3.604,4.5369644,0,0.0,4,1,24
244468359,1599740338599734,568884020,98611923,42419,84972,0.20700002,0.017995914,0.65400004,0.757,0.53,0.76,97,24,11.382001,-1.794,-11.240001,-2.877,4.5541577,0,0.0,4,1,24
244666543,1599740338799734,568883987,98611555,42934,85487,0.20700002,0.018071312,0.65400004,0.757,0.53,0.76,97,24,11.356001,-1.8920001,-11.1970005,-2.338,4.545023,0,0.0,4,1,24
244882354,1599740338999735,568883954,98611189,43281,85834,0.21400002,0.01877468,0.65500003,0.758,0.53,0.76,97,24,11.291,-1.7170001,-11.160001,-1.263,4.5597267,0,0.0,4,1,24
245068362,1599740339199734,568883928,98610825,43472,86025,0.231,0.018999653,0.657,0.75900006,0.53,0.76,97,27,11.129001,-1.2720001,-11.056001,-0.665,4.5978084,0,0.0,4,1,24
245266505,1599740339399734,568883905,98610465,43512,86065,0.22700001,0.019450298,0.65800005,0.76000005,0.53,0.76,97,27,11.033001,-1.192,-10.968,0.24700001,4.604092,0,0.0,4,1,24
245472299,1599740339599734,568883883,98610105,43499,86052,0.21700001,0.01825143,0.65900004,0.76100004,0.53,0.76,97,27,11.068001,-1.2870001,-10.993001,-0.20600002,4.5958724,0,0.0,4,1,24
245667431,1599740339799734,568883861,98609746,43573,86126,0.21800001,0.018730348,0.66,0.762,0.53,0.76,97,27,10.964001,-1.2440001,-10.894,-0.59400004,4.5987244,0,0.0,4,1,24
245908363,1599740339999735,568883842,98609388,43760,86313,0.22700001,0.02035525,0.661,0.76400006,0.53,0.76,97,28,10.9800005,-0.85800004,-10.946,-1.3490001,4.634181,0,0.0,4,1,24
246050402,1599740340199734,568883829,98609029,43956,86508,0.22900002,0.020089088,0.66300005,0.76600003,0.53,0.76,97,28,10.973001,-0.632,-10.955001,-0.827,4.654751,0,0.0,4,1,24
246266009,1599740340399734,568883819,98608672,43883,86436,0.22700001,0.019651184,0.665,0.76900005,0.53,0.76,97,28,10.948001,-0.41200003,-10.940001,1.3310001,4.6747217,0,0.0,4,1,24
246460350,1599740340599734,568883820,98608318,43756,86309,0.21200001,0.019012569,0.666,0.771,0.53,0.76,97,28,10.644,0.565,-10.629001,-0.24400002,4.765447,0,0.0,4,1,24
246661488,1599740340799734,568883836,98607974,43821,86375,0.21700001,0.020087866,0.66700006,0.77400005,0.53,0.76,97,28,10.453,1.2340001,-10.38,-0.592,4.830755,0,0.0,4,1,24
246880353,1599740340999735,568883862,98607636,43984,86537,0.224,0.020129405,0.66800004,0.777,0.53,0.76,97,28,10.361,1.746,-10.213,-1.217,4.8816695,0,0.0,4,1,24
247063463,1599740341199734,568883900,98607306,44277,86830,0.193,0.019904954,0.669,0.78000003,0.53,0.76,97,22,10.27,2.479,-9.967,-1.7590001,4.9561357,0,0.0,4,1,24
247264382,1599740341399734,568883951,98606988,44683,87236,0.215,0.019957315,0.67,0.78200006,0.53,0.76,97,22,10.047001,3.242,-9.51,-2.3470001,5.0409303,0,0.0,4,1,24
247461358,1599740341599734,568884015,98606682,45095,87648,0.21200001,0.019950682,0.671,0.785,0.53,0.76,97,22,9.912001,3.8990002,-9.113001,-2.066,5.1166887,0,0.0,4,1,24
247660354,1599740341799734,568884086,98606386,45461,88014,0.209,0.021852044,0.67200005,0.78700006,0.53,0.76,97,22,9.826,4.059,-8.948,-1.7110001,5.138286,0,0.0,4,1,24
247894401,1599740341999735,568884161,98606099,45803,88356,0.209,0.021886427,0.67300004,0.78900003,0.53,0.76,97,22,9.558001,4.17,-8.601001,-1.876,5.1638007,0,0.0,4,1,24
248069559,1599740342199734,568884236,98605818,46066,88619,0.21000001,0.022100056,0.674,0.791,0.53,0.76,97,25,9.544001,4.313,-8.5130005,-1.09,5.181353,0,0.0,4,1,24
248269497,1599740342399734,568884315,98605541,46208,88761,0.21100001,0.02248909,0.675,0.79300004,0.53,0.76,97,25,9.442,4.473,-8.315001,-0.64400005,5.205932,0,0.0,4,1,24
248451675,1599740342599734,568884397,98605272,46305,88858,0.21200001,0.022990173,0.67600006,0.795,0.53,0.76,97,25,9.354,4.7460003,-8.061001,-0.61200005,5.244511,0,0.0,4,1,24
248674392,1599740342799734,568884483,98605008,46424,88977,0.20600002,0.021766523,0.67700005,0.79600006,0.53,0.76,97,25,9.342,4.8700004,-7.9730005,-0.77800006,5.260696,0,0.0,4,1,24
248887348,1599740342999735,568884572,98604752,46585,89138,0.21300001,0.023562467,0.67800003,0.79800004,0.53,0.76,97,25,9.182,5.0550003,-7.6650004,-0.72400004,5.295447,0,0.0,4,1,24
249053102,1599740343199734,568884663,98604501,46644,89197,0.21200001,0.023399802,0.679,0.8,0.53,0.76,97,26,9.2300005,5.162,-7.6520004,-0.09200001,5.3059115,0,0.0,4,1,24
249267634,1599740343399734,568884754,98604251,46610,89163,0.21200001,0.023762133,0.68,0.80300003,0.53,0.76,97,26,9.125,5.092,-7.5720005,0.25,5.304404,0,0.0,4,1,24
249467415,1599740343599734,568884846,98604004,46588,89141,0.208,0.023068888,0.68100005,0.804,0.53,0.76,97,26,9.069,5.163,-7.4560003,-0.080000006,5.3180823,0,0.0,4,1,24
249649167,1599740343799734,568884940,98603761,46608,89161,0.2,0.020913232,0.68,0.804,0.53,0.76,97,26,9.080001,5.288,-7.3810005,-0.018000001,5.3340707,0,0.0,4,1,24
249889084,1599740343999735,568885038,98603522,46658,89212,0.19900002,0.020914279,0.68,0.804,0.53,0.76,97,26,9.078,5.6080003,-7.1380005,-0.53900003,5.3782487,0,0.0,4,1,24
250062664,1599740344199734,568885140,98603289,46875,89428,0.209,0.021357069,0.68,0.80500007,0.53,0.76,97,25,9.158,5.7910004,-7.0950003,-1.5760001,5.396963,0,0.0,4,1,24
250260968,1599740344399734,568885243,98603059,47200,89753,0.208,0.021201909,0.68,0.80600005,0.53,0.76,97,25,9.004001,5.7310004,-6.945,-1.6450001,5.4023223,0,0.0,4,1,24
250465097,1599740344599734,568885344,98602835,47568,90122,0.209,0.022083126,0.68,0.80600005,0.53,0.76,97,25,8.764001,5.5530005,-6.7790003,-1.9160001,5.3987017,0,0.0,4,1,24
250670585,1599740344799734,568885442,98602615,48006,90560,0.209,0.021434562,0.68,0.80700004,0.53,0.76,97,25,8.477,5.2910004,-6.6240005,-2.4610002,5.386372,0,0.0,4,1,24
250884749,1599740344999735,568885536,98602403,48542,91096,0.192,0.022222752,0.67700005,0.80600005,0.53,0.76,97,25,8.214001,5.2310004,-6.333,-2.7600002,5.4027634,0,0.0,4,1,24
251066897,1599740345199734,568885631,98602200,49120,91673,0.18400002,0.02265507,0.67300004,0.804,0.53,0.76,97,25,7.9540005,5.2650003,-5.9620004,-2.959,5.43582,0,0.0,4,1,24
251265512,1599740345399734,568885728,98602009,49692,92245,0.18100001,0.02304166,0.669,0.80100006,0.53,0.76,97,25,7.7640004,5.3570004,-5.6200004,-2.716,5.473805,0,0.0,4,1,24
251474809,1599740345599734,568885823,98601827,50259,92812,0.18300001,0.027427323,0.665,0.79800004,0.53,0.76,97,25,7.478,5.1080003,-5.4610004,-2.8230002,5.4684715,0,0.0,4,1,24
251666804,1599740345799734,568885913,98601650,50812,93365,0.18,0.028524961,0.66200006,0.79600006,0.53,0.76,97,25,7.2000003,4.9030004,-5.2730002,-2.572,5.4642773,0,0.0,4,1,24
251886390,1599740345999735,568886003,98601484,51379,93933,0.18300001,0.0259513,0.65900004,0.79300004,0.53,0.76,97,25,6.8960004,4.965,-4.7850003,-3.0360003,5.4978414,0,0.0,4,1,24
252064194,1599740346199734,568886091,98601325,51871,94424,0.179,0.03028914,0.656,0.791,0.53,0.76,97,28,6.8370004,4.8370004,-4.8320003,-2.0170002,5.4980726,0,0.0,4,1,24
252273534,1599740346399734,568886177,98601165,52192,94745,0.178,0.030548148,0.65300006,0.78900003,0.53,0.76,97,28,6.7710004,4.755,-4.821,-1.195,5.4939113,0,0.0,4,1,24
252464369,1599740346599734,568886261,98601005,52404,94958,0.19100001,0.03115779,0.652,0.78700006,0.53,0.76,97,28,6.63,4.499,-4.8700004,-0.873,5.4734836,0,0.0,4,1,24
252672203,1599740346799734,568886340,98600844,52524,95077,0.208,0.027690869,0.652,0.78700006,0.53,0.76,97,28,6.6190004,4.4,-4.945,-0.46600002,5.451856,0,0.0,4,1,24
252878361,1599740346999735,568886419,98600681,52553,95106,0.20400001,0.02808095,0.651,0.78700006,0.53,0.76,97,28,6.6190004,4.4610004,-4.8900003,-0.049000002,5.451915,0,0.0,4,1,24
253063684,1599740347199734,568886499,98600521,52574,95128,0.19700001,0.03034726,0.651,0.78700006,0.53,0.76,98,27,6.5280004,4.432,-4.793,-0.347,5.455698,0,0.0,4,1,24
253258447,1599740347399734,568886579,98600361,52637,95190,0.19800001,0.030038336,0.651,0.78700006,0.53,0.76,98,27,6.6720004,4.557,-4.874,-0.416,5.4606795,0,0.0,4,1,24
253466565,1599740347599734,568886660,98600202,52762,95315,0.19800001,0.030410964,0.65000004,0.78700006,0.53,0.76,98,27,6.589,4.4760003,-4.835,-0.81000006,5.459859,0,0.0,4,1,24
253663351,1599740347799734,568886741,98600042,52878,95431,0.194,0.029967826,0.65000004,0.786,0.53,0.76,98,27,6.6900005,4.612,-4.847,-0.48100004,5.467602,0,0.0,4,1,24
253872262,1599740347999735,568886824,98599882,52925,95478,0.194,0.02983099,0.64900005,0.786,0.53,0.76,98,27,6.7160006,4.644,-4.852,-0.155,5.4724684,0,0.0,4,1,24
254068391,1599740348199734,568886909,98599722,52927,95480,0.194,0.029432882,0.64900005,0.786,0.53,0.76,98,25,6.8580003,4.829,-4.8700004,0.16700001,5.4849896,0,0.0,4,1,24
254265505,1599740348399734,568886998,98599565,52905,95458,0.19500001,0.029217333,0.648,0.786,0.53,0.76,98,25,6.9600005,5.0880003,-4.749,0.080000006,5.513006,0,0.0,4,1,24
254473939,1599740348599734,568887092,98599414,52851,95404,0.18200001,0.026847875,0.647,0.785,0.53,0.76,98,25,7.0910006,5.505,-4.4690003,0.296,5.568917,0,0.0,4,1,24
254667946,1599740348799734,568887191,98599270,52796,95349,0.179,0.026281863,0.64500004,0.785,0.53,0.76,98,25,7.214,5.742,-4.366,0.286,5.608561,0,0.0,4,1,24
254888346,1599740348999735,568887297,98599135,52757,95311,0.179,0.02582005,0.643,0.785,0.53,0.76,98,25,7.352,6.196,-3.9570003,0.051000003,5.674596,0,0.0,4,1,24
255051575,1599740349199734,568887411,98599012,52759,95312,0.179,0.024903404,0.64100003,0.785,0.53,0.76,98,25,7.5950003,6.6330004,-3.7000003,0.086,5.738052,0,0.0,4,1,24
255267732,1599740349399734,568887533,98598901,52768,95321,0.177,0.024066519,0.63900006,0.78400004,0.53,0.76,98,25,7.8820004,7.1580005,-3.298,-0.059000004,5.811176,0,0.0,4,1,24
255469481,1599740349599734,568887663,98598805,52777,95331,0.178,0.023164706,0.637,0.78300005,0.53,0.76,98,25,8.091001,7.589,-2.8060002,-0.0050000004,5.9289947,0,0.0,4,1,24
255663350,1599740349799734,568887801,98598724,52752,95306,0.172,0.020245818,0.633,0.781,0.53,0.76,98,25,8.445001,8.122001,-2.312,0.048,6.0058875,0,0.0,4,1,24
255869803,1599740349999735,568887950,98598663,52736,95289,0.172,0.018743264,0.629,0.78000003,0.53,0.76,98,25,8.792001,8.6380005,-1.639,0.123,6.095654,0,0.0,4,1,24
256059732,1599740350199734,568888107,98598623,52680,95233,0.178,0.017515775,0.625,0.78000003,0.53,0.76,98,23,9.211,9.159,-0.9710001,0.179,6.177587,0,0.0,4,1,24
256253173,1599740350399734,568888275,98598609,52641,95194,0.18,0.015541283,0.62200004,0.77900004,0.53,0.76,98,23,9.787001,9.786,-0.11000001,0.072000004,6.2719197,0,0.0,4,1,24
256469632,1599740350599734,568888453,98598621,52579,95132,0.18400002,0.01385739,0.619,0.77800006,0.53,0.76,98,23,10.246,10.225,0.65500003,0.284,0.0639424,0,0.0,4,1,24
256671360,1599740350799734,568888640,98598656,52468,95021,0.18,0.013564349,0.61600006,0.77800006,0.53,0.76,98,23,10.705001,10.617001,1.363,0.71000004,0.1277026,0,0.0,4,1,24
256877121,1599740350999735,568888835,98598720,52353,94906,0.18200001,0.012918228,0.614,0.77800006,0.53,0.76,98,23,11.3880005,11.126,2.4280002,0.47300002,0.21489155,0,0.0,4,1,24
257071637,1599740351199734,568889038,98598819,52292,94845,0.18,0.012506854,0.61200005,0.777,0.53,0.76,98,25,11.990001,11.465,3.509,0.268,0.29704577,0,0.0,4,1,24
257268355,1599740351399734,568889249,98598960,52308,94861,0.171,0.01297338,0.61,0.776,0.53,0.76,98,25,12.954,11.941001,5.0230002,-0.319,0.39816195,0,0.0,4,1,24
257478559,1599740351599734,568889464,98599153,52382,94935,0.18100001,0.014067353,0.61,0.776,0.53,0.76,98,25,13.820001,12.101001,6.6770005,-0.35500002,0.5042059,0,0.0,4,1,24
257671152,1599740351799734,568889683,98599413,52604,95157,0.194,0.012632169,0.61,0.77400005,0.53,0.76,98,25,15.254001,12.264001,9.0720005,-1.83,0.6368797,0,0.0,4,1,24
257911350,1599740351999735,568889901,98599746,53045,95598,0.21100001,0.013238322,0.61200005,0.77500004,0.53,0.76,112,25,16.409,12.078001,11.108001,-2.4870002,0.74359083,0,0.0,4,1,24
258078898,1599740352199734,568890115,98600141,53599,96152,0.245,0.014940541,0.615,0.776,0.53,0.76,112,25,17.471,11.776001,12.906,-3.075,0.83115524,0,0.0,4,1,24
258272349,1599740352399734,568890322,98600587,54221,96774,0.24800001,0.014080618,0.62,0.777,0.53,0.76,112,25,18.154001,11.328,14.186001,-3.1990001,0.89697003,0,0.0,4,1,24
258481342,1599740352599734,568890519,98601075,54902,97454,0.252,0.013493314,0.624,0.77800006,0.53,0.76,112,25,18.771002,10.621,15.478001,-3.5980003,0.96939456,0,0.0,4,1,24
258674552,1599740352799734,568890706,98601595,55605,98158,0.252,0.013123654,0.628,0.77900004,0.53,0.76,112,25,19.105001,10.274,16.107,-3.3000002,1.002975,0,0.0,4,1,24
258898350,1599740352999735,568890889,98602129,56066,98619,0.25300002,0.0124782305,0.63100004,0.78000003,0.53,0.76,112,25,19.238,10.216001,16.302,-1.5910001,1.011,0,0.0,4,1,24
259070349,1599740353199734,568891071,98602671,56298,98851,0.252,0.0116394255,0.634,0.78000003,0.53,0.76,112,22,19.344002,10.1310005,16.478,-0.624,1.0195448,0,0.0,4,1,24
259278396,1599740353399734,568891245,98603225,56502,99055,0.24800001,0.011808373,0.637,0.781,0.53,0.76,112,22,19.62,9.371,17.237001,-1.33,1.0728413,0,0.0,4,1,24
259478349,1599740353599734,568891410,98603799,56691,99244,0.25300002,0.011787779,0.64000005,0.78200006,0.53,0.76,112,22,19.874,9.079,17.679,-0.53300005,1.0963657,0,0.0,4,1,24
259658863,1599740353799734,568891571,98604385,56720,99272,0.257,0.012778951,0.64400005,0.78300005,0.53,0.76,112,22,20.077002,8.889001,18.002,0.20300001,1.1121317,0,0.0,4,1,24
259898803,1599740353999735,568891727,98604981,56678,99231,0.25500003,0.012293051,0.648,0.78400004,0.53,0.76,112,22,20.306002,8.583,18.403002,0.453,1.1343669,0,0.0,4,1,24
260073490,1599740354199734,568891878,98605588,56582,99134,0.257,0.012245404,0.651,0.785,0.53,0.76,111,22,20.487001,8.331,18.716002,0.72700006,1.1519879,0,0.0,4,1,24
260278422,1599740354399734,568892026,98606204,56455,99007,0.261,0.012004549,0.65500003,0.78700006,0.53,0.76,111,22,20.727001,8.18,19.045,0.89400005,1.1650887,0,0.0,4,1,24
260474375,1599740354599734,568892171,98606834,56263,98815,0.25800002,0.011527899,0.65800005,0.78800005,0.53,0.76,111,22,20.973001,8.02,19.379002,1.1420001,1.1784054,0,0.0,4,1,24
260672388,1599740354799734,568892314,98607475,56018,98570,0.246,0.011250566,0.661,0.79,0.53,0.76,111,22,21.221,7.8700004,19.708,1.2570001,1.1908437,0,0.0,4,1,24
260904300,1599740354999735,568892453,98608128,55745,98297,0.24800001,0.011581306,0.66400003,0.79200006,0.53,0.76,111,22,21.457,7.6700006,20.039001,1.3280001,1.2052491,0,0.0,4,1,24
261076349,1599740355199734,568892588,98608795,55493,98046,0.245,0.011168536,0.66700006,0.79300004,0.53,0.76,111,20,21.728,7.4660006,20.405,1.118,1.2200522,0,0.0,4,1,24
261264445,1599740355399734,568892722,98609467,55235,97787,0.23700002,0.01045138,0.669,0.795,0.53,0.76,111,20,21.817001,7.4000006,20.524,1.3560001,1.2247363,0,0.0,4,1,24
261480458,1599740355599734,568892856,98610138,54950,97502,0.24100001,0.010217681,0.671,0.79700005,0.53,0.76,111,20,21.798,7.577,20.439001,1.3260001,1.2157849,0,0.0,4,1,24
261665482,1599740355799734,568892993,98610807,54734,97286,0.23600002,0.010126225,0.67200005,0.79800004,0.53,0.76,111,20,21.864,7.669,20.474,0.8,1.2123858,0,0.0,4,1,24
261897485,1599740355999735,568893132,98611473,54578,97130,0.238,0.010574076,0.674,0.80100006,0.53,0.76,111,20,21.720001,7.886,20.238,0.666,1.1992428,0,0.0,4,1,24
262081766,1599740356199734,568893276,98612130,54449,97001,0.257,0.0106430175,0.67600006,0.80300003,0.53,0.76,111,21,21.609001,8.18,20.001001,0.416,1.1825441,0,0.0,4,1,24
262276412,1599740356399734,568893426,98612780,54368,96920,0.24400002,0.009989217,0.67600006,0.80500007,0.53,0.76,111,21,21.437,8.533,19.666,0.37800002,1.1614256,0,0.0,4,1,24
262489987,1599740356599734,568893582,98613419,54284,96836,0.24300002,0.010048907,0.67600006,0.80700004,0.53,0.76,111,21,21.221,8.847,19.289001,0.34300002,1.1407781,0,0.0,4,1,24
262681885,1599740356799734,568893745,98614043,54241,96793,0.26000002,0.009647132,0.67600006,0.808,0.53,0.76,111,21,20.964,9.3220005,18.777,0.116000004,1.1099975,0,0.0,4,1,24
262898004,1599740356999735,568893915,98614647,54173,96725,0.263,0.009788679,0.67700005,0.81000006,0.53,0.76,111,21,20.606,9.726001,18.167002,0.21800001,1.0792652,0,0.0,4,1,24
263076351,1599740357199734,568894094,98615231,54151,96702,0.268,0.009952041,0.67700005,0.81100005,0.53,0.76,104,18,20.221,10.157001,17.484001,0.0050000004,1.0445163,0,0.0,4,1,24
263279459,1599740357399734,568894280,98615793,54134,96686,0.264,0.009870535,0.67800003,0.81200004,0.53,0.76,104,18,19.908,10.554001,16.880001,-0.067,1.0120323,0,0.0,4,1,24
263478344,1599740357599734,568894472,98616332,54185,96736,0.26900002,0.009839468,0.67800003,0.813,0.53,0.76,104,18,19.408,10.901001,16.058,-0.27600002,0.97438794,0,0.0,4,1,24
263671510,1599740357799734,568894671,98616845,54232,96783,0.28500003,0.01045295,0.679,0.814,0.53,0.76,104,18,18.922,11.239,15.223001,-0.286,0.9348309,0,0.0,4,1,24
263907349,1599740357999735,568894875,98617332,54289,96841,0.28800002,0.010544231,0.68,0.81500006,0.53,0.76,104,20,18.537,11.545,14.503,-0.264,0.8984745,0,0.0,4,1,24
264075351,1599740358199734,568895084,98617791,54354,96906,0.282,0.010791545,0.68200004,0.81600004,0.53,0.76,104,20,17.939001,11.771001,13.537001,-0.446,0.8550807,0,0.0,4,1,24
264265514,1599740358399734,568895297,98618215,54454,97006,0.263,0.010920175,0.68200004,0.81500006,0.53,0.76,104,20,17.364,12.059001,12.494,-0.49100003,0.8031324,0,0.0,4,1,24
264480975,1599740358599734,568895515,98618607,54538,97090,0.24300002,0.011584448,0.683,0.814,0.53,0.76,104,20,16.820002,12.287001,11.488001,-0.33800003,0.7517988,0,0.0,4,1,24
264671515,1599740358799734,568895735,98618967,54562,97113,0.25100002,0.012023573,0.683,0.813,0.53999996,0.76,104,20,16.33,12.439,10.581,-0.014,0.70485955,0,0.0,4,1,23
264899355,1599740358999735,568895958,98619300,54572,97124,0.26500002,0.01222603,0.684,0.81200004,0.53999996,0.76,104,20,15.867001,12.500001,9.774,0.031000001,0.6636321,0,0.0,4,1,23
265081140,1599740359199734,568896182,98619605,54589,97140,0.263,0.0127730165,0.68500006,0.81200004,0.53999996,0.76,104,20,15.341001,12.465,8.943001,-0.24300002,0.6223566,0,0.0,4,1,23
265274932,1599740359399734,568896403,98619891,54647,97199,0.289,0.013688791,0.68600005,0.81200004,0.53999996,0.76,104,20,14.917001,12.325001,8.404,-0.21000001,0.59845084,0,0.0,4,1,23
265472349,1599740359599734,568896623,98620160,54749,97300,0.28300002,0.013533108,0.68700004,0.81200004,0.53999996,0.76,104,20,14.6380005,12.271001,7.9800005,-0.48400003,0.576596,0,0.0,4,1,23
265659408,1599740359799734,568896840,98620418,54899,97450,0.275,0.012327259,0.68700004,0.81000006,0.53,0.76,104,20,14.341001,12.071,7.7430005,-0.41200003,0.57036275,0,0.0,4,1,24
265899586,1599740359999735,568897056,98620669,54994,97545,0.257,0.011877838,0.68600005,0.80700004,0.53,0.76,104,20,14.163001,12.002001,7.5190005,-0.44000003,0.5596545,0,0.0,4,1,24
266072351,1599740360199734,568897269,98620915,55106,97658,0.26000002,0.012100193,0.68500006,0.80500007,0.53,0.76,104,21,13.933001,11.852,7.3250003,-0.55600005,0.55357003,0,0.0,4,1,24
266282819,1599740360399734,568897478,98621157,55242,97794,0.257,0.01212358,0.683,0.80300003,0.53,0.76,104,21,13.790001,11.762,7.1990004,-0.544,0.5492472,0,0.0,4,1,24
266481490,1599740360599734,568897685,98621394,55387,97938,0.25,0.012245927,0.68200004,0.8,0.53,0.76,104,21,13.615001,11.639001,7.063,-0.572,0.5454602,0,0.0,4,1,24
266677865,1599740360799734,568897892,98621623,55515,98066,0.25100002,0.012584521,0.68100005,0.79800004,0.53,0.76,104,21,13.432001,11.552001,6.854,-0.48200002,0.5355087,0,0.0,4,1,24
266889522,1599740360999735,568898097,98621847,55614,98165,0.25800002,0.012625188,0.68,0.79600006,0.53,0.76,104,21,13.336,11.500001,6.7530003,-0.202,0.53099036,0,0.0,4,1,24
267082349,1599740361199734,568898302,98622065,55635,98186,0.25800002,0.01278314,0.679,0.795,0.53,0.76,104,21,13.207001,11.441001,6.597,0.097,0.52305645,0,0.0,4,1,24
267274390,1599740361399734,568898505,98622279,55617,98168,0.25800002,0.013512862,0.679,0.794,0.53,0.76,104,21,13.082001,11.368001,6.4730005,0.134,0.517588,0,0.0,4,1,24
267460891,1599740361599734,568898708,98622489,55577,98128,0.254,0.013522461,0.67800003,0.79300004,0.53,0.76,104,21,12.999001,11.313001,6.4020004,0.22700001,0.515007,0,0.0,4,1,24
267677577,1599740361799734,568898911,98622696,55512,98063,0.24700001,0.0135123385,0.67800003,0.79200006,0.53,0.76,104,21,12.941001,11.314,6.2840004,0.30200002,0.50697726,0,0.0,4,1,24
267912302,1599740361999735,568899113,98622899,55430,97981,0.24400002,0.0129791405,0.67700005,0.791,0.53,0.76,104,23,12.859,11.288,6.1590004,0.49100003,0.49949872,0,0.0,4,1,24
268068364,1599740362199734,568899316,98623099,55325,97876,0.23600002,0.012927827,0.67600006,0.78900003,0.53,0.76,104,23,12.85,11.293,6.1310005,0.49,0.49739,0,0.0,4,1,24
268272355,1599740362399734,568899517,98623298,55209,97760,0.23600002,0.013063788,0.675,0.78800005,0.53,0.76,104,23,12.739,11.225,6.024,0.77500004,0.49252978,0,0.0,4,1,24
268464359,1599740362599734,568899718,98623495,55051,97602,0.23500001,0.013064836,0.674,0.78700006,0.53,0.76,104,23,12.762001,11.291,5.9490004,0.892,0.48490426,0,0.0,4,1,24
268667354,1599740362799734,568899920,98623689,54927,97478,0.23200001,0.012984726,0.67300004,0.786,0.53,0.76,104,23,12.752001,11.282001,5.9420004,0.45100003,0.48477477,0,0.0,4,1,24
268896496,1599740362999735,568900120,98623883,54867,97418,0.22200002,0.013168159,0.67200005,0.785,0.53,0.76,104,23,12.711,11.238001,5.94,0.43100002,0.48621154,0,0.0,4,1,24
269064328,1599740363199734,568900322,98624075,54783,97334,0.22500001,0.0126747545,0.671,0.78400004,0.53,0.76,104,24,12.76,11.335001,5.86,0.60400003,0.4771515,0,0.0,4,1,24
269260449,1599740363399734,568900525,98624266,54625,97176,0.22200002,0.013315639,0.669,0.78300005,0.53,0.76,104,24,12.691001,11.275001,5.8250003,0.84700006,0.4768365,0,0.0,4,1,24
269463449,1599740363599734,568900726,98624458,54477,97028,0.21900001,0.012782092,0.66800004,0.781,0.53,0.76,104,24,12.641001,11.200001,5.86,0.72800004,0.48203093,0,0.0,4,1,24
269666055,1599740363799734,568900927,98624652,54350,96901,0.21700001,0.012677198,0.66700006,0.78000003,0.53,0.76,104,24,12.682,11.196,5.9570003,0.646,0.4889407,0,0.0,4,1,24
269905967,1599740363999735,568901128,98624849,54260,96811,0.216,0.013188056,0.665,0.77900004,0.53,0.76,104,24,12.674001,11.182,5.966,0.416,0.49013084,0,0.0,4,1,24
270073879,1599740364199734,568901329,98625046,54276,96827,0.21900001,0.013052095,0.66400003,0.777,0.53,0.76,104,24,12.696001,11.175,6.0270004,-0.55300003,0.4946132,0,0.0,4,1,24
270266080,1599740364399734,568901529,98625244,54399,96950,0.20400001,0.012885242,0.66200006,0.776,0.53,0.76,104,24,12.703001,11.146001,6.0930004,-0.71800005,0.50025165,0,0.0,4,1,24
270469504,1599740364599734,568901727,98625444,54560,97111,0.20400001,0.012920497,0.66,0.77400005,0.53,0.76,104,24,12.653001,11.057,6.1520004,-0.758,0.5077698,0,0.0,4,1,24
270673961,1599740364799734,568901923,98625645,54711,97262,0.22000001,0.01320324,0.65800005,0.77300006,0.53,0.76,104,24,12.503,10.895,6.135,-0.67200005,0.5128098,0,0.0,4,1,24
270886413,1599740364999735,568902118,98625846,54851,97402,0.224,0.013290507,0.657,0.771,0.53,0.76,104,24,12.459001,10.851001,6.122,-0.647,0.5136219,0,0.0,4,1,24
271067389,1599740365199734,568902311,98626044,54959,97509,0.22700001,0.01354742,0.656,0.77000004,0.53,0.76,104,23,12.309001,10.773001,5.953,-0.50600004,0.5048101,0,0.0,4,1,24
271270097,1599740365399734,568902503,98626238,55079,97630,0.22800002,0.013697518,0.65500003,0.76900005,0.53,0.76,104,23,12.1710005,10.644,5.9020004,-0.628,0.5062755,0,0.0,4,1,24
271467346,1599740365599734,568902692,98626430,55180,97731,0.22700001,0.013664531,0.65400004,0.768,0.53,0.76,104,23,12.118001,10.596001,5.879,-0.27800003,0.5065015,0,0.0,4,1,24
271666349,1599740365799734,568902882,98626619,55235,97786,0.22700001,0.01396176,0.65300006,0.767,0.53,0.76,104,23,11.9800005,10.575001,5.629,-0.21400002,0.4891824,0,0.0,4,1,24
271890349,1599740365999735,568903070,98626802,55272,97822,0.22700001,0.014058103,0.65300006,0.76600003,0.53,0.76,104,23,11.905001,10.518001,5.576,-0.09200001,0.4874486,0,0.0,4,1,24
272059368,1599740366199734,568903259,98626984,55276,97826,0.22100002,0.014176785,0.652,0.76500005,0.53,0.76,104,23,11.858001,10.515,5.4820004,0.201,0.4805626,0,0.0,4,1,24
272266366,1599740366399734,568903447,98627163,55243,97793,0.22100002,0.014217625,0.651,0.76400006,0.53,0.76,104,23,11.830001,10.501,5.4490004,0.34800002,0.47867483,0,0.0,4,1,24
272468356,1599740366599734,568903636,98627341,55184,97735,0.21700001,0.013904339,0.65000004,0.763,0.53,0.76,104,23,11.871,10.585,5.374,0.264,0.46976966,0,0.0,4,1,24
272678640,1599740366799734,568903826,98627517,55120,97670,0.21900001,0.013966473,0.64900005,0.762,0.53,0.76,104,23,11.875001,10.642,5.269,0.528,0.45971674,0,0.0,4,1,24
272888352,1599740366999735,568904017,98627689,55006,97556,0.21800001,0.014008535,0.648,0.76100004,0.53,0.76,104,23,11.847,10.63,5.23,0.73700005,0.457253,0,0.0,4,1,24
273071358,1599740367199734,568904207,98627860,54880,97431,0.21700001,0.013900151,0.647,0.76000005,0.53,0.76,104,23,11.839001,10.667001,5.135,0.712,0.44866967,0,0.0,4,1,24
273268353,1599740367399734,568904399,98628030,54779,97329,0.215,0.01372108,0.646,0.75900006,0.53,0.76,104,23,11.962001,10.750001,5.2460003,0.418,0.45398927,0,0.0,4,1,24
273467354,1599740367599734,568904593,98628204,54730,97281,0.21100001,0.013507277,0.64500004,0.758,0.53,0.76,104,23,12.06,10.837001,5.2920003,0.15,0.45430464,0,0.0,4,1,24
273668348,1599740367799734,568904788,98628382,54757,97308,0.21200001,0.013353164,0.64400005,0.758,0.53,0.76,104,23,12.161,10.847,5.498,-0.273,0.4691005,0,0.0,4,1,24
273893446,1599740367999735,568904983,98628564,54815,97365,0.193,0.013108993,0.642,0.75600004,0.53,0.76,104,23,12.215,10.851001,5.609,-0.37600002,0.47707123,0,0.0,4,1,24
274070383,1599740368199734,568905178,98628749,54921,97471,0.193,0.01302958,0.64000005,0.75500005,0.53,0.76,104,24,12.273001,10.895,5.649,-0.65000004,0.4783223,0,0.0,4,1,24
274269408,1599740368399734,568905373,98628935,55048,97599,0.192,0.013005843,0.638,0.753,0.53,0.76,104,24,12.281,10.879001,5.6980004,-0.3,0.48244005,0,0.0,4,1,24
274470351,1599740368599734,568905566,98629123,55154,97704,0.193,0.012941965,0.63600004,0.75200003,0.53,0.76,104,24,12.149,10.712001,5.7320004,-0.6,0.4913763,0,0.0,4,1,24
274669499,1599740368799734,568905757,98629311,55377,97928,0.20500001,0.013089794,0.634,0.75100005,0.53,0.76,104,24,12.055,10.595,5.7510004,-1.5320001,0.49727046,0,0.0,4,1,24
274881322,1599740368999735,568905946,98629501,55646,98197,0.20600002,0.013445667,0.633,0.75000006,0.53,0.76,104,24,12.097,10.593,5.8420005,-1.065,0.5040074,0,0.0,4,1,24
275073140,1599740369199734,568906134,98629692,55838,98389,0.20600002,0.013820563,0.632,0.75000006,0.53,0.76,104,22,11.959001,10.471001,5.7780004,-0.76600003,0.50425386,0,0.0,4,1,24
275270372,1599740369399734,568906320,98629881,55994,98544,0.20500001,0.014019531,0.63100004,0.75000006,0.53,0.76,104,22,11.795001,10.342001,5.6720004,-0.623,0.50161356,0,0.0,4,1,24
275475348,1599740369599734,568906505,98630066,56134,98684,0.20600002,0.014174341,0.63000005,0.749,0.53,0.76,104,22,11.699,10.285001,5.576,-0.59400004,0.49680462,0,0.0,4,1,24
275670925,1599740369799734,568906688,98630248,56257,98808,0.21200001,0.014170153,0.63000005,0.749,0.53,0.76,104,22,11.636001,10.244,5.519,-0.425,0.49413863,0,0.0,4,1,24
275904354,1599740369999735,568906871,98630429,56348,98898,0.202,0.0141720725,0.629,0.748,0.53,0.76,104,25,11.551001,10.175,5.4680004,-0.33400002,0.49310768,0,0.0,4,1,24
276091281,1599740370199734,568907052,98630606,56402,98952,0.209,0.014465637,0.628,0.748,0.53,0.76,104,25,11.398001,10.099001,5.2860003,-0.042000003,0.48223567,0,0.0,4,1,24
276260352,1599740370399734,568907234,98630780,56406,98956,0.208,0.014383956,0.62700003,0.74700004,0.53,0.76,104,25,11.468,10.177,5.2860003,0.254,0.4790033,0,0.0,4,1,24
276463372,1599740370599734,568907416,98630954,56356,98906,0.208,0.014452547,0.62700003,0.74700004,0.53,0.76,104,25,11.516001,10.238001,5.2730002,0.37800002,0.4755947,0,0.0,4,1,24
276668405,1599740370799734,568907600,98631125,56286,98836,0.20700002,0.014381686,0.62600005,0.74600005,0.53,0.76,104,25,11.516001,10.324,5.103,0.39100003,0.45906416,0,0.0,4,1,24
276885612,1599740370999735,568907784,98631294,56206,98756,0.20700002,0.014361615,0.62600005,0.74600005,0.53,0.76,104,25,11.52,10.302,5.1540003,0.61800003,0.4638521,0,0.0,4,1,24
277071501,1599740371199734,568907969,98631463,56082,98632,0.208,0.0141397845,0.625,0.74600005,0.53,0.76,104,21,11.603001,10.412001,5.1200004,0.71800005,0.45699313,0,0.0,4,1,24
277269704,1599740371399734,568908157,98631629,55944,98494,0.208,0.014152525,0.625,0.74600005,0.53,0.76,104,21,11.6380005,10.514001,4.9890003,0.59900004,0.44302318,0,0.0,4,1,24
277465488,1599740371599734,568908346,98631792,55834,98384,0.20600002,0.014128091,0.624,0.74500006,0.53,0.76,104,21,11.662001,10.6,4.8640003,0.45200002,0.43021682,0,0.0,4,1,24
277665542,1599740371799734,568908536,98631951,55769,98319,0.20600002,0.0141006885,0.624,0.74500006,0.53,0.76,104,21,11.700001,10.662001,4.8180003,0.20600002,0.42440367,0,0.0,4,1,24
277905484,1599740371999735,568908728,98632108,55755,98305,0.201,0.013749354,0.623,0.744,0.53,0.76,104,22,11.76,10.7630005,4.7380004,0.046000004,0.41463995,0,0.0,4,1,24
278073484,1599740372199734,568908923,98632267,55767,98317,0.19800001,0.013509371,0.62200004,0.74300003,0.53,0.75,104,22,11.933001,10.896001,4.866,-0.055000003,0.41999477,0,0.0,4,1,25
278273493,1599740372399734,568909119,98632429,55762,98312,0.20600002,0.0134732425,0.62100005,0.74200004,0.53,0.75,104,22,12.034,10.958,4.9740005,0.049000002,0.42612264,0,0.0,4,1,25
278471414,1599740372599734,568909316,98632595,55746,98296,0.19900002,0.012353265,0.619,0.74,0.53,0.75,104,22,12.129001,11.035001,5.0340004,0.026,0.42796832,0,0.0,4,1,25
278679375,1599740372799734,568909515,98632765,55743,98292,0.20600002,0.012673358,0.61800003,0.739,0.53,0.75,104,22,12.403001,11.238001,5.248,0.054,0.43688852,0,0.0,4,1,25
278898403,1599740372999735,568909716,98632943,55764,98314,0.20600002,0.012541062,0.61700004,0.739,0.53,0.75,104,22,12.485001,11.204,5.5080004,-0.23600002,0.45694742,0,0.0,4,1,25
279066348,1599740373199734,568909917,98633126,55822,98372,0.20400001,0.012408941,0.61600006,0.73800004,0.53,0.75,104,22,12.587001,11.266001,5.6140003,-0.46,0.4622642,0,0.0,4,1,25
279267350,1599740373399734,568910119,98633315,55924,98474,0.20700002,0.012330227,0.61600006,0.73800004,0.53,0.75,104,22,12.666,11.262,5.7960005,-0.587,0.47529414,0,0.0,4,1,25
279470706,1599740373599734,568910321,98633506,56033,98583,0.21000001,0.012863425,0.615,0.73800004,0.53,0.75,104,22,12.677001,11.264001,5.8170004,-0.66300005,0.47671902,0,0.0,4,1,25
279667354,1599740373799734,568910522,98633698,56198,98747,0.20300001,0.012923464,0.614,0.73700005,0.53,0.75,104,22,12.630001,11.194,5.848,-1.0610001,0.48140472,0,0.0,4,1,25
279887401,1599740373999735,568910720,98633891,56419,98969,0.209,0.013202019,0.614,0.73700005,0.53,0.75,104,22,12.458,11.02,5.8110003,-1.2260001,0.48527062,0,0.0,4,1,25
280067367,1599740374199734,568910918,98634083,56563,99113,0.216,0.013224009,0.614,0.73700005,0.53,0.75,104,22,12.468,11.005,5.86,-0.312,0.48930827,0,0.0,4,1,25
280267133,1599740374399734,568911114,98634276,56604,99154,0.21700001,0.013328555,0.614,0.73800004,0.53,0.75,104,22,12.377001,10.924001,5.8190002,-0.224,0.48945192,0,0.0,4,1,25
280460350,1599740374599734,568911308,98634465,56654,99204,0.22100002,0.0135069275,0.614,0.73800004,0.53,0.75,104,22,12.287001,10.874001,5.721,-0.35000002,0.48430878,0,0.0,4,1,25
280675185,1599740374799734,568911502,98634653,56689,99239,0.21200001,0.013494885,0.61300004,0.73800004,0.53,0.75,104,22,12.2300005,10.791,5.756,0.012,0.48999017,0,0.0,4,1,25
280892349,1599740374999735,568911695,98634841,56678,99228,0.216,0.013699961,0.61300004,0.73700005,0.53,0.75,104,22,12.129001,10.729,5.6580005,0.156,0.48527813,0,0.0,4,1,25
281074642,1599740375199734,568911887,98635028,56625,99175,0.216,0.013590878,0.61300004,0.73700005,0.53,0.75,104,23,12.209001,10.77,5.749,0.30800003,0.4903235,0,0.0,4,1,25
281275093,1599740375399734,568912083,98635222,56486,99036,0.192,0.012697444,0.61200005,0.73700005,0.53,0.75,104,23,12.500001,10.963,6.005,0.77900004,0.5011402,0,0.0,4,1,25
281458896,1599740375599734,568912283,98635434,56248,98798,0.185,0.016807519,0.611,0.73700005,0.53,0.75,104,23,12.963,11.110001,6.6780005,1.345,0.5412145,0,0.0,4,1,25
281677044,1599740375799734,568912489,98635676,55898,98448,0.172,0.01732658,0.61,0.73800004,0.53,0.75,104,23,13.874001,11.541,7.7000003,1.7270001,0.5883896,0,0.0,4,1,25
281890865,1599740375999735,568912701,98635956,55478,98027,0.18200001,0.01651064,0.611,0.74,0.53,0.75,104,21,15.077001,11.999001,9.13,2.2080002,0.6504079,0,0.0,4,1,25
282070389,1599740376199734,568912919,98636299,55038,97588,0.201,0.014727611,0.61300004,0.74300003,0.53,0.75,104,21,16.792002,12.128,11.614,2.085,0.76374763,0,0.0,4,1,25
282276701,1599740376399734,568913136,98636729,54614,97164,0.19900002,0.014107845,0.61600006,0.74500006,0.53,0.75,104,21,18.769001,11.9210005,14.497001,1.774,0.88258606,0,0.0,4,1,25
282478346,1599740376599734,568913341,98637258,54380,96930,0.21300001,0.012315741,0.61800003,0.74500006,0.53,0.75,104,21,20.634,10.762,17.605001,0.64400005,1.0221134,0,0.0,4,1,25
282682786,1599740376799734,568913522,98637875,54262,96811,0.25800002,0.012515755,0.623,0.748,0.53,0.75,104,21,22.003,9.315001,19.934,0.30600002,1.1336432,0,0.0,4,1,25
282900475,1599740376999735,568913670,98638567,54277,96826,0.27400002,0.011057532,0.629,0.753,0.53,0.75,113,28,23.245,7.1460004,22.119001,-0.261,1.2583089,0,0.0,4,1,25
283076355,1599740377199735,568913776,98639325,54422,96972,0.282,0.009653066,0.632,0.754,0.53,0.75,113,28,24.397001,4.5030003,23.978,-1.01,1.3851459,0,0.0,4,1,25
283284309,1599740377399735,568913828,98640130,54681,97230,0.3,0.009990439,0.637,0.75900006,0.53,0.75,113,28,25.185001,1.243,25.154001,-1.6790001,1.5214175,0,0.0,4,1,25
283478477,1599740377599735,568913831,98640957,54951,97500,0.289,0.009959546,0.643,0.76400006,0.53,0.75,113,28,25.506,-0.99600005,25.487001,-1.478,1.6098729,0,0.0,4,1,25
283668424,1599740377799735,568913787,98641793,55258,97808,0.326,0.010199006,0.64900005,0.77000004,0.53,0.75,113,28,25.859001,-3.9640002,25.554,-1.748,1.7247062,0,0.0,4,1,25
283895411,1599740377999736,568913696,98642621,55573,98122,0.3,0.009719389,0.65500003,0.77500004,0.53,0.75,113,28,25.86,-6.247,25.094002,-1.6100001,1.814762,0,0.0,4,1,25
284078441,1599740378199735,568913556,98643431,55974,98523,0.28,0.009597216,0.66,0.77900004,0.53,0.75,113,32,25.879002,-9.048,24.246,-1.9670001,1.92796,0,0.0,4,1,25
284272351,1599740378399735,568913375,98644205,56310,98859,0.287,0.011081095,0.665,0.785,0.53,0.75,113,32,25.588001,-11.083,23.063002,-1.572,2.0187504,0,0.0,4,1,25
284461986,1599740378599735,568913158,98644940,56580,99129,0.25300002,0.011321776,0.67,0.79,0.53,0.75,113,32,25.381,-12.955001,21.825,-1.35,2.1064918,0,0.0,4,1,25
284654066,1599740378799735,568912909,98645629,56851,99400,0.24100001,0.012299335,0.675,0.79600006,0.53999996,0.76,113,32,24.976002,-14.604001,20.261002,-1.1930001,2.1953301,0,0.0,4,1,24
284894005,1599740378999736,568912632,98646260,57087,99636,0.208,0.011296643,0.68,0.80100006,0.53999996,0.76,113,32,24.522001,-16.154001,18.449001,-1.052,2.2899573,0,0.0,4,1,24
285083996,1599740379199735,568912328,98646839,57304,99853,0.18800001,0.013398717,0.683,0.80700004,0.53999996,0.76,113,22,24.025002,-17.300001,16.671001,-0.777,2.3747108,0,0.0,4,1,24
285279446,1599740379399735,568912008,98647347,57470,100019,0.179,0.013514433,0.68600005,0.81100005,0.53999996,0.76,113,22,23.306002,-18.148,14.623001,-0.63600004,2.4633327,0,0.0,4,1,24
285460276,1599740379599735,568911674,98647783,57609,100158,0.187,0.013478478,0.689,0.81500006,0.53999996,0.76,113,22,22.455002,-18.890001,12.14,-0.72900003,2.5703762,0,0.0,4,1,24
285677487,1599740379799735,568911329,98648142,57782,100331,0.18,0.013421755,0.69000006,0.81900007,0.53999996,0.76,113,22,21.524,-19.141,9.844001,-0.485,2.666576,0,0.0,4,1,24
285899345,1599740379999736,568910984,98648424,57895,100444,0.185,0.013536249,0.69000006,0.823,0.53999996,0.76,113,22,20.467001,-19.108002,7.3350005,-0.52500004,2.775043,0,0.0,4,1,24
286079353,1599740380199735,568910642,98648622,57994,100543,0.2,0.013116498,0.69000006,0.827,0.53999996,0.76,112,25,19.424002,-18.811,4.841,-0.514,2.8897212,0,0.0,4,1,24
286267386,1599740380399735,568910309,98648743,58087,100636,0.21800001,0.013599256,0.69000006,0.83300006,0.53999996,0.76,112,25,18.278002,-18.11,2.47,-0.48000002,3.0060174,0,0.0,4,1,24
286481722,1599740380599735,568909990,98648790,58193,100742,0.23500001,0.014151303,0.69100004,0.84000003,0.53999996,0.76,112,25,17.070002,-17.069,0.17300001,-0.59300005,3.1314325,0,0.0,4,1,24
286679353,1599740380799735,568909695,98648771,58259,100808,0.263,0.014804405,0.693,0.84800005,0.53999996,0.76,112,25,15.85,-15.778001,-1.5100001,-0.39400002,3.2370298,0,0.0,4,1,24
286899353,1599740380999736,568909424,98648701,58314,100863,0.27800003,0.01438413,0.69500005,0.85700005,0.53999996,0.76,112,25,14.657001,-14.352,-2.976,-0.35200003,3.3460283,0,0.0,4,1,24
287081623,1599740381199735,568909178,98648588,58378,100928,0.25800002,0.014630222,0.69600004,0.86600006,0.53999996,0.76,112,23,13.452001,-12.797001,-4.1460004,-0.42000002,3.4548845,0,0.0,4,1,24
287281613,1599740381399735,568908960,98648442,58395,100944,0.266,0.016504006,0.698,0.873,0.53999996,0.76,112,23,12.522,-11.625001,-4.6540003,-0.187,3.5224366,0,0.0,4,1,24
287463808,1599740381599735,568908763,98648280,58427,100976,0.268,0.01892792,0.70000005,0.882,0.53999996,0.76,112,23,11.567,-10.368,-5.1280003,-0.351,3.6009345,0,0.0,4,1,24
287672345,1599740381799735,568908586,98648108,58422,100971,0.24700001,0.020296607,0.702,0.88600004,0.53999996,0.76,112,23,10.904,-9.404,-5.518,-0.12900001,3.672169,0,0.0,4,1,24
287917054,1599740381999736,568908426,98647927,58411,100960,0.22900002,0.023835087,0.70400006,0.8880001,0.53,0.75,112,23,10.27,-8.541,-5.703,0.0,3.7302947,0,0.0,4,1,25
288085205,1599740382199735,568908279,98647738,58383,100932,0.22600001,0.025399774,0.70500004,0.88900006,0.53,0.75,112,23,9.746,-7.7960005,-5.8500004,0.216,3.7853432,0,0.0,4,1,25
288279464,1599740382399735,568908146,98647546,58364,100913,0.20700002,0.025371674,0.70500004,0.887,0.53,0.75,112,23,9.406,-7.2820005,-5.9540005,0.31800002,3.827022,0,0.0,4,1,25
288482875,1599740382599735,568908019,98647348,58267,100817,0.194,0.026789231,0.70400006,0.88600004,0.53,0.75,112,23,9.074,-6.7720003,-6.0390005,0.34800002,3.869845,0,0.0,4,1,25
288686721,1599740382799735,568907905,98647152,58198,100747,0.194,0.02728124,0.703,0.88500005,0.53,0.75,112,23,8.769,-6.3230004,-6.077,0.39600003,3.9071515,0,0.0,4,1,25
288866853,1599740382999736,568907797,98646955,58101,100650,0.186,0.027504118,0.70100003,0.882,0.53,0.75,112,23,8.595,-5.979,-6.175,0.63900006,3.9431655,0,0.0,4,1,25
289076369,1599740383199735,568907694,98646754,58005,100555,0.19500001,0.028784491,0.70100003,0.88100004,0.53,0.75,105,25,8.353001,-5.5940003,-6.203,0.453,3.9786131,0,0.0,4,1,25
289277403,1599740383399735,568907593,98646549,57852,100402,0.202,0.028173976,0.70000005,0.878,0.53,0.75,105,25,8.268001,-5.3980002,-6.262,0.776,4.0010204,0,0.0,4,1,25
289454812,1599740383599735,568907498,98646343,57728,100277,0.19800001,0.028578892,0.69900006,0.87600005,0.53,0.75,105,25,8.146001,-5.0870004,-6.3620005,0.70100003,4.037885,0,0.0,4,1,25
289678374,1599740383799735,568907409,98646133,57570,100119,0.2,0.028589364,0.698,0.874,0.53,0.75,105,25,8.059,-4.8250003,-6.4540005,0.8880001,4.07042,0,0.0,4,1,25
289909516,1599740383999736,568907325,98645922,57448,99997,0.201,0.028571911,0.698,0.87200004,0.53,0.75,105,23,8.053,-4.6610003,-6.5670004,0.874,4.0951986,0,0.0,4,1,25
290078923,1599740384199735,568907241,98645705,57262,99811,0.202,0.02873824,0.697,0.87000006,0.53,0.75,105,23,7.9930005,-4.53,-6.5860004,1.013,4.109932,0,0.0,4,1,25
290278370,1599740384399735,568907157,98645488,57080,99630,0.201,0.028737368,0.697,0.86800003,0.53,0.75,105,23,7.9800005,-4.5010004,-6.589,0.79700005,4.1130853,0,0.0,4,1,25
290466452,1599740384599735,568907076,98645271,56914,99463,0.202,0.028382542,0.697,0.86700004,0.53,0.75,105,23,8.065001,-4.4630003,-6.7180004,0.81100005,4.1260643,0,0.0,4,1,25
290680405,1599740384799735,568906995,98645052,56727,99277,0.2,0.0281279,0.69600004,0.86500007,0.53,0.75,105,23,8.121,-4.559,-6.7200003,1.1960001,4.116258,0,0.0,4,1,25
290904351,1599740384999736,568906916,98644833,56555,99104,0.2,0.028220575,0.69500005,0.86200005,0.53,0.75,105,25,8.009001,-4.375,-6.709,0.95500004,4.134573,0,0.0,4,1,25
291066844,1599740385199735,568906837,98644613,56386,98935,0.21900001,0.029540394,0.69600004,0.86200005,0.53,0.75,105,25,8.035001,-4.329,-6.768,0.92800003,4.143321,0,0.0,4,1,25
291280366,1599740385399735,568906759,98644391,56249,98799,0.2,0.028516235,0.69500005,0.859,0.53,0.75,105,25,8.063001,-4.321,-6.807,0.634,4.146737,0,0.0,4,1,25
291472260,1599740385599735,568906683,98644169,56127,98677,0.20600002,0.029345091,0.69500005,0.85800004,0.53,0.75,105,25,8.025001,-4.1870003,-6.8450003,0.711,4.163401,0,0.0,4,1,25
291676355,1599740385799735,568906608,98643944,55994,98544,0.2,0.027677778,0.69500005,0.855,0.53,0.75,105,25,8.094001,-4.237,-6.8960004,0.6,4.1614904,0,0.0,4,1,25
291907405,1599740385999736,568906531,98643718,55900,98449,0.202,0.028054945,0.69500005,0.85300004,0.53,0.75,105,25,8.089001,-4.21,-6.9070005,0.284,4.164999,0,0.0,4,1,25
292082024,1599740386199735,568906454,98643493,55855,98405,0.202,0.029005276,0.69500005,0.851,0.53,0.75,105,25,8.077001,-4.236,-6.8780003,0.22800002,4.16036,0,0.0,4,1,25
292279420,1599740386399735,568906378,98643268,55810,98359,0.201,0.028967576,0.69500005,0.84900004,0.53,0.75,105,25,8.049001,-4.211,-6.86,0.115,4.161829,0,0.0,4,1,25
292477538,1599740386599735,568906304,98643045,55816,98365,0.209,0.028602455,0.69500005,0.84700006,0.53,0.75,105,25,8.0390005,-4.227,-6.8380003,0.101,4.158713,0,0.0,4,1,25
292669546,1599740386799735,568906229,98642823,55809,98359,0.19900002,0.029118024,0.694,0.84400004,0.53,0.75,105,25,7.952,-4.229,-6.734,-0.046000004,4.1544647,0,0.0,4,1,25
292898103,1599740386999736,568906155,98642604,55814,98363,0.201,0.029924542,0.694,0.84200007,0.53,0.75,105,25,7.8490005,-4.1080003,-6.688,-0.19900002,4.1586237,0,0.0,4,1,25
293069524,1599740387199735,568906083,98642387,55867,98417,0.20300001,0.030747987,0.694,0.84000003,0.53,0.75,105,26,7.7990003,-4.0740004,-6.65,-0.223,4.1610594,0,0.0,4,1,25
293269514,1599740387399735,568906012,98642172,55934,98484,0.20300001,0.031278044,0.694,0.83900005,0.53,0.75,105,26,7.662,-3.982,-6.5470004,-0.29500002,4.1639204,0,0.0,4,1,25
293475624,1599740387599735,568905942,98641960,56035,98585,0.19700001,0.030734198,0.693,0.83400005,0.53,0.75,105,26,7.5740004,-3.9440002,-6.466,-0.316,4.164363,0,0.0,4,1,25
293667349,1599740387799735,568905872,98641750,56154,98703,0.19600001,0.03118589,0.69200003,0.83000004,0.53,0.75,105,26,7.5390005,-4.0150003,-6.3810005,-0.49100003,4.1564546,0,0.0,4,1,25
293897588,1599740387999736,568905800,98641542,56249,98798,0.201,0.032708514,0.69200003,0.82900006,0.53,0.75,105,26,7.471,-3.979,-6.3230004,-0.45900002,4.15318,0,0.0,4,1,25
294070356,1599740388199735,568905730,98641337,56340,98890,0.201,0.03374262,0.693,0.82800007,0.53,0.75,105,24,7.3170004,-3.8850002,-6.2000003,-0.43,4.152891,0,0.0,4,1,25
294271384,1599740388399735,568905660,98641136,56452,99002,0.201,0.03427739,0.694,0.827,0.53,0.75,105,24,7.241,-3.867,-6.122,-0.528,4.150709,0,0.0,4,1,25
294471354,1599740388599735,568905592,98640935,56586,99135,0.202,0.034163423,0.694,0.82600003,0.53,0.75,105,24,7.1850004,-3.7330003,-6.1400003,-0.647,4.1595635,0,0.0,4,1,25
294670419,1599740388799735,568905526,98640734,56694,99244,0.2,0.033609103,0.69500005,0.82500005,0.53,0.75,105,24,7.188,-3.7460003,-6.1340003,-0.448,4.162201,0,0.0,4,1,25
294888381,1599740388999736,568905458,98640535,56780,99330,0.2,0.03427198,0.69500005,0.823,0.53,0.75,105,24,7.0990005,-3.778,-6.01,-0.27800003,4.156024,0,0.0,4,1,25
295071700,1599740389199735,568905391,98640338,56793,99343,0.19800001,0.03259367,0.69500005,0.82100004,0.53,0.75,105,25,7.155,-3.8530002,-6.0290003,0.272,4.148712,0,0.0,4,1,25
295270693,1599740389399735,568905323,98640139,56740,99290,0.19800001,0.032298364,0.69500005,0.81900007,0.53,0.75,105,25,7.2260003,-3.8690002,-6.103,0.31,4.147929,0,0.0,4,1,25
