timestamp,voltage_v,voltage_filtered_v,current_a,current_filtered_a,discharged_mah,remaining,scale,cell_count,connected,warning
226493702,14.002368,15.776365,33.366684,20.161938,24.618793,0.91272706,1.0171117,4,1,0
226793719,13.794987,15.381584,33.128426,25.297806,27.37938,0.8928354,1.021094,4,1,0
227093644,14.06873,15.068579,32.73478,28.312881,30.12117,0.8759915,1.0244907,4,1,0
227395304,14.06873,14.829111,31.69887,29.79405,32.810257,0.864518,1.0268174,4,1,0
227695386,14.168273,14.653295,31.533125,30.480726,35.43777,0.8590504,1.0279299,4,1,0
227995403,14.126797,14.515013,30.901217,30.764917,38.03966,0.8544431,1.0288693,4,1,0
228307395,14.052139,14.419455,29.927464,30.63592,40.682957,0.85569733,1.0286133,4,1,0
228607390,14.226339,14.357248,29.606329,30.318623,43.171143,0.85935163,1.0278685,4,1,0
228907338,14.060434,14.306076,29.886026,30.087132,45.647556,0.86125094,1.0274818,4,1,0
229208972,14.168273,14.249627,30.186441,30.080376,48.166027,0.8575447,1.0282366,4,1,0
229508992,14.176568,14.214875,29.254122,29.901941,50.638424,0.8575659,1.0282323,4,1,0
229808997,14.168273,14.197706,28.90191,29.536589,53.05678,0.8606335,1.0276076,4,1,0
230109018,14.300997,14.198018,28.21821,29.165241,55.44266,0.8671654,1.0262797,4,1,0
230421572,14.292702,14.201989,27.710613,28.56005,57.84846,0.8734144,1.0250124,4,1,0
230722544,14.234634,14.206425,27.555227,28.102716,60.140453,0.8783831,1.024007,4,1,0
231022561,14.259521,14.216454,27.203016,27.804691,62.420616,0.8841667,1.0228393,4,1,0
231322469,14.317587,14.237115,26.384645,27.280964,64.62883,0.89251006,1.0211594,4,1,0
231622571,14.267816,14.257269,26.042797,26.823616,66.80737,0.9000587,1.0196443,4,1,0
231922852,14.392244,14.269978,26.136026,26.545189,68.986115,0.9048541,1.018684,4,1,0
232224043,14.251225,14.280529,26.270697,26.402718,71.17609,0.90868384,1.0179185,4,1,0
232524091,14.176568,14.282188,26.239618,26.390532,73.37431,0.9095553,1.0177445,4,1,0
232824061,14.176568,14.27427,26.260338,26.339901,75.56266,0.90737027,1.018181,4,1,0
233124130,14.334178,14.268454,26.519316,26.370132,77.76425,0.90584576,1.0184858,4,1,0
233424388,14.334178,14.270847,26.146389,26.354212,79.961685,0.9068086,1.0182933,4,1,0
233725700,14.226339,14.265207,26.529675,26.38387,82.17242,0.90522075,1.0186107,4,1,0
234025807,14.400539,14.267905,25.732025,26.26488,84.35041,0.90622675,1.0184095,4,1,0
234325604,14.317587,14.279812,25.669868,26.031326,86.489006,0.91001076,1.0176536,4,1,0
234637745,14.400539,14.292717,25.234785,25.73841,88.684715,0.91398036,1.0168617,4,1,0
234937673,14.41713,14.309055,24.696112,25.442982,90.76941,0.9189473,1.0158726,4,1,0
235237734,14.442016,14.325373,23.69128,24.965055,92.79296,0.92367435,1.0149331,4,1,0
235539369,14.549854,14.344674,22.603573,24.342474,94.755646,0.9263066,1.0144106,4,1,0
235839308,14.632807,14.386035,21.650536,23.403797,96.58968,0.9323918,1.013205,4,1,0
236139363,14.599626,14.4327345,20.852884,22.614502,98.37746,0.9371206,1.0122701,4,1,0
236439306,14.665987,14.470086,21.319044,21.967197,100.12336,0.93638265,1.0124158,4,1,0
236739306,14.732349,14.511221,18.832857,21.192799,101.80035,0.9345988,1.0127684,4,1,0
237041004,15.014387,14.585542,16.667803,19.74522,103.278984,0.94154316,1.0113972,4,1,0
237341051,15.047568,14.68378,14.078027,17.90053,104.54632,0.95473695,1.0088022,4,1,0
237641042,15.205178,14.803297,12.254824,15.926586,105.62953,0.9737646,1.0050832,4,1,0
237952947,15.470626,14.928698,10.069053,13.886529,106.585945,0.9935643,1.0012422,4,1,0
238253005,15.60335,15.05884,8.421954,11.98942,107.34923,1.0,1.0,4,1,0
238554577,15.578464,15.189132,7.334248,10.246478,107.989456,1.0,1.0,4,1,0
238854612,15.661416,15.310614,5.904691,8.681742,108.51964,1.0,1.0,4,1,0
239154570,15.926865,15.434972,4.5787253,7.1954846,108.93568,1.0,1.0,4,1,0
239454601,16.001522,15.560038,3.4185057,5.8701634,109.259605,1.0,1.0,4,1,0
239754633,16.12595,15.671762,2.8694727,4.7481375,109.514885,1.0,1.0,4,1,0
240056247,16.009817,15.760077,3.0455778,4.055067,109.765656,1.0,1.0,4,1,0
240356293,16.034702,15.821405,3.2734778,3.7808225,110.04502,1.0,1.0,4,1,0
240656243,16.026407,15.870792,3.749997,3.5540028,110.31053,1.0,1.0,4,1,0
240956232,15.960045,15.895588,4.1850796,3.7662587,110.65027,1.0,1.0,4,1,0
241256267,15.819026,15.907602,4.899858,4.037598,111.0181,1.0,1.0,4,1,0
241557671,15.852207,15.910516,5.3142223,4.411563,111.4329,1.0,1.0,4,1,0
241869736,15.819026,15.897955,6.4330063,5.018135,111.93942,1.0,1.0,4,1,0
242169706,15.661416,15.867382,6.992398,5.717431,112.503075,1.0,1.0,4,1,0
242469727,15.893683,15.846539,6.6091104,6.2459803,113.091644,1.0,1.0,4,1,0
242769687,15.877092,15.829327,6.49516,6.3651304,113.63775,1.0,1.0,4,1,0
243069753,15.843912,15.8256,5.490327,6.1689124,114.13016,1.0,1.0,4,1,0
243371314,15.860502,15.839244,5.904691,5.951182,114.60038,1.0,1.0,4,1,0
243671261,15.785845,15.855207,5.542123,5.758158,115.0563,1.0,1.0,4,1,0
243983298,15.993226,15.856389,5.6353545,5.69598,115.54227,1.0,1.0,4,1,0
244283270,15.810731,15.868315,5.44889,5.6152797,116.000725,1.0,1.0,4,1,0
244583307,15.860502,15.88255,5.1070404,5.4810576,116.44157,1.0,1.0,4,1,0
244884923,15.868797,15.892208,5.7182274,5.4368324,116.88976,1.0,1.0,4,1,0
245184876,15.943455,15.902769,5.407454,5.3144345,117.317986,1.0,1.0,4,1,0
245484897,15.943455,15.902277,5.9254093,5.422307,117.7812,1.0,1.0,4,1,0
245784892,15.9019785,15.897868,6.3915696,5.6687474,118.2829,1.0,1.0,4,1,0
246097002,15.93516,15.877973,6.4744425,5.996998,118.84415,1.0,1.0,4,1,0
246398465,15.79414,15.86828,7.1270657,6.3251753,119.41261,1.0,1.0,4,1,0
246698606,15.702892,15.847058,7.3860435,6.7196894,120.02231,1.0,1.0,4,1,0
246998535,15.76096,15.824263,7.3860435,7.0831985,120.658714,1.0,1.0,4,1,0
247298456,15.802436,15.816055,6.930243,7.0605755,121.24529,1.0,1.0,4,1,0
247598690,15.727778,15.816322,6.5365973,6.890288,121.799286,1.0,1.0,4,1,0
247900102,15.852207,15.8119545,6.9509616,6.9124103,122.379456,1.0,1.0,4,1,0
248200022,15.7360735,15.804623,7.209939,6.9538093,122.963356,1.0,1.0,4,1,0
248500881,15.60335,15.789073,7.696817,7.146573,123.58312,1.0,1.0,4,1,0
248800089,15.661416,15.776769,7.738253,7.3372498,124.21747,1.0,1.0,4,1,0
249100247,15.636531,15.756509,8.017949,7.5985093,124.88192,1.0,1.0,4,1,0
249401823,15.528692,15.735015,9.261043,8.07009,125.614365,1.0,1.0,4,1,0
249701763,15.420855,15.700582,10.255517,8.739305,126.42453,1.0,1.0,4,1,0
250001703,15.487216,15.657781,10.183002,9.364106,127.28513,1.0,1.0,4,1,0
250301856,15.545283,15.637746,9.675406,9.548778,128.10663,1.0,1.0,4,1,0
250601815,15.503807,15.617997,9.602893,9.564965,128.9044,1.0,1.0,4,1,0
250903447,15.653121,15.603649,9.592534,9.609444,129.71605,1.0,1.0,4,1,0
251203409,15.644826,15.611909,7.168502,9.094088,130.41835,1.0,1.0,4,1,0
251515445,15.877092,15.648816,6.2258234,8.033076,130.98596,1.0,1.0,4,1,0
251815399,15.843912,15.683623,5.966846,7.2036643,131.48117,1.0,1.0,4,1,0
252115416,15.926865,15.725869,5.542123,6.6429734,131.96509,1.0,1.0,4,1,0
252416963,15.852207,15.76875,5.428172,6.187261,132.4257,1.0,1.0,4,1,0
252716889,15.893683,15.805587,5.479968,5.864222,132.87376,1.0,1.0,4,1,0
253016916,15.868797,15.832785,5.44889,5.6955514,133.32672,1.0,1.0,4,1,0
253316893,15.885388,15.848971,5.366018,5.559574,133.77289,1.0,1.0,4,1,0
253616864,15.96834,15.866445,5.303863,5.4648185,134.21611,1.0,1.0,4,1,0
253916962,15.96834,15.878401,5.303863,5.446999,134.66765,1.0,1.0,4,1,0
254218482,15.976636,15.882836,5.5732,5.472631,135.12782,1.0,1.0,4,1,0
254518461,15.885388,15.883037,5.8218184,5.558548,135.6012,1.0,1.0,4,1,0
254818487,15.810731,15.885334,5.946128,5.6749554,136.0883,1.0,1.0,4,1,0
255118456,15.9019785,15.8871355,6.0911555,5.7945995,136.58553,1.0,1.0,4,1,0
255418490,15.976636,15.884961,6.277619,5.9516,137.10056,1.0,1.0,4,1,0
255720118,15.835616,15.87801,6.484802,6.126786,137.63545,1.0,1.0,4,1,0
256020146,15.694597,15.860877,6.774856,6.383727,138.19907,1.0,1.0,4,1,0
256320137,15.79414,15.849516,7.2824526,6.6310835,138.7815,1.0,1.0,4,1,0
256632123,15.711188,15.828016,7.7589717,6.974102,139.42702,1.0,1.0,4,1,0
256932125,15.578464,15.798459,8.0490265,7.3243694,140.08037,1.0,1.0,4,1,0
257233706,15.661416,15.766278,9.209247,7.760079,140.77953,1.0,1.0,4,1,0
257533665,15.76096,15.732582,8.577341,8.1989,141.51909,1.0,1.0,4,1,0
257833718,15.76096,15.721997,7.872922,8.172356,142.19765,1.0,1.0,4,1,0
258133674,15.9019785,15.738795,5.645714,7.477833,142.73996,1.0,1.0,4,1,0
258433709,15.910274,15.779165,4.816985,6.603368,143.18246,1.0,1.0,4,1,0
258735385,16.059587,15.823014,3.9157429,5.7204075,143.55298,1.0,1.0,4,1,0
259047303,16.10936,15.875483,3.4703012,4.881386,143.87248,1.0,1.0,4,1,0
259347349,16.101065,15.923118,3.0248594,4.2079506,144.13922,1.0,1.0,4,1,0
259647266,16.12595,15.970676,2.983423,3.6949084,144.38214,1.0,1.0,4,1,0
259947318,16.15913,16.01133,2.9627047,3.394493,144.62683,1.0,1.0,4,1,0
260248994,16.15913,16.04122,2.8383956,3.202125,144.871,1.0,1.0,4,1,0
260549018,16.15913,16.06529,2.8176773,3.0882766,145.11398,1.0,1.0,4,1,0
260849076,16.117655,16.079752,3.0145004,3.0293314,145.35829,1.0,1.0,4,1,0
261149071,16.084475,16.087729,3.0455778,3.0534399,145.61568,1.0,1.0,4,1,0
261449072,16.150835,16.098484,3.2941964,3.1443508,145.88844,1.0,1.0,4,1,0
261750616,16.009817,16.098253,3.791433,3.3056576,146.18484,1.0,1.0,4,1,0
262050615,16.042997,16.093925,3.9157429,3.5219328,146.50484,1.0,1.0,4,1,0
262350659,16.001522,16.08593,4.257593,3.7395444,146.84294,1.0,1.0,4,1,0
262662637,15.976636,16.071308,4.5165706,4.0139246,147.22388,1.0,1.0,4,1,0
262962620,16.001522,16.058262,4.806626,4.272801,147.61186,1.0,1.0,4,1,0
263264135,16.009817,16.040451,4.7859077,4.476353,148.0132,1.0,1.0,4,1,0
263564013,15.918569,16.025728,5.013808,4.6442976,148.4205,1.0,1.0,4,1,0
263864083,15.827321,16.00565,5.7389455,4.9010277,148.8588,1.0,1.0,4,1,0
264164115,15.95175,15.984784,5.9357686,5.2436485,149.33826,1.0,1.0,4,1,0
264464140,15.976636,15.966036,5.5939183,5.486315,149.82816,1.0,1.0,4,1,0
264765691,15.893683,15.964787,4.7755485,5.258023,150.24199,1.0,1.0,4,1,0
265065702,16.026407,15.977534,4.1850796,4.9226384,150.61182,1.0,1.0,4,1,0
265365693,16.009817,15.995828,3.8432288,4.5917983,150.95312,1.0,1.0,4,1,0
265665676,16.067883,16.01535,3.9261017,4.3338466,151.28151,1.0,1.0,4,1,0
265977681,16.067883,16.02742,4.081488,4.2098417,151.63055,1.0,1.0,4,1,0
266279372,16.018112,16.03498,3.9261017,4.0984926,151.96014,1.0,1.0,4,1,0
266579301,15.993226,16.042793,3.8639472,4.011507,152.28345,1.0,1.0,4,1,0
266879333,16.042997,16.05333,4.0296926,3.998123,152.61441,1.0,1.0,4,1,0
267179342,16.059587,16.059048,4.143643,4.0123487,152.95023,1.0,1.0,4,1,0
267479266,16.042997,16.064463,3.9468198,4.03264,153.28893,1.0,1.0,4,1,0
267780947,16.042997,16.059355,4.06077,4.0389605,153.62766,1.0,1.0,4,1,0
268081702,16.026407,16.058466,4.2783117,4.0898566,153.97551,1.0,1.0,4,1,0
268380936,16.026407,16.05307,4.29903,4.1602087,154.32999,1.0,1.0,4,1,0
268692840,15.976636,16.053125,4.433698,4.195171,154.69682,1.0,1.0,4,1,0
268992925,16.101065,16.04777,4.5580072,4.3501787,155.07852,1.0,1.0,4,1,0
269294514,15.960045,16.043993,4.7341123,4.48487,155.4711,1.0,1.0,4,1,0
269594499,16.067883,16.034454,4.9516535,4.6207376,155.87234,1.0,1.0,4,1,0
269894461,16.067883,16.022375,5.003449,4.771614,156.28891,1.0,1.0,4,1,0
270194497,15.960045,16.016666,5.0552444,4.848089,156.70221,1.0,1.0,4,1,0
270494449,16.009817,16.01118,5.189913,4.9054623,157.11789,1.0,1.0,4,1,0
270796189,15.9019785,16.002777,5.158836,5.0115366,157.5507,1.0,1.0,4,1,0
271108151,15.993226,15.991889,5.283145,5.13246,158.01128,1.0,1.0,4,1,0
271408091,16.001522,15.98507,5.324581,5.1933656,158.45113,1.0,1.0,4,1,0
271708193,15.976636,15.977693,5.262427,5.2232747,158.8905,1.0,1.0,4,1,0
272008168,15.860502,15.969426,5.479968,5.2658863,159.33429,1.0,1.0,4,1,0
272309810,15.835616,15.957449,5.6560726,5.3894367,159.80124,1.0,1.0,4,1,0
272609619,15.918569,15.954456,5.5317636,5.4410195,160.26152,1.0,1.0,4,1,0
272909657,15.993226,15.9454365,5.6975093,5.4993076,160.7265,1.0,1.0,4,1,0
273209701,15.918569,15.937534,5.407454,5.5200543,161.18974,1.0,1.0,4,1,0
273509609,15.910274,15.939387,5.386736,5.4871716,161.64319,1.0,1.0,4,1,0
273811316,15.993226,15.94058,5.44889,5.4477024,162.09473,1.0,1.0,4,1,0
274111359,15.93516,15.942742,5.2520676,5.4010906,162.53969,1.0,1.0,4,1,0
274411280,15.960045,15.953376,4.9930897,5.303016,162.96962,1.0,1.0,4,1,0
274711392,15.943455,15.962612,5.044885,5.1630273,163.38301,1.0,1.0,4,1,0
275011446,15.893683,15.964928,5.1070404,5.1353106,163.80742,1.0,1.0,4,1,0
275312846,16.009817,15.969052,5.0656037,5.1279964,164.23587,1.0,1.0,4,1,0
275624875,15.835616,15.968464,5.0656037,5.114578,164.67754,1.0,1.0,4,1,0
275924896,15.918569,15.966282,5.7596636,5.163649,165.11275,1.0,1.0,4,1,0
276225008,15.885388,15.937043,5.8011003,5.617118,165.64078,1.0,1.0,4,1,0
276525053,15.943455,15.931743,5.780382,5.643582,166.1151,1.0,1.0,4,1,0
276826456,16.018112,15.925245,5.9150505,5.7035184,166.59904,1.0,1.0,4,1,0
277126492,15.9019785,15.917826,6.1222324,5.834735,167.10146,1.0,1.0,4,1,0
277426454,15.943455,15.909422,6.03936,5.924829,167.60686,1.0,1.0,4,1,0
277726512,15.96834,15.903005,5.790741,5.947098,168.10614,1.0,1.0,4,1,0
278026441,15.810731,15.897308,5.8632545,5.917662,168.59552,1.0,1.0,4,1,0
278326459,15.95175,15.904068,5.4592495,5.778244,169.06107,1.0,1.0,4,1,0
278640136,15.976636,15.908073,5.1381173,5.5874004,169.52466,1.0,1.0,4,1,0
278940086,15.868797,15.91461,5.262427,5.4421873,169.95964,1.0,1.0,4,1,0
279240111,15.860502,15.919908,5.096681,5.3160186,170.38686,1.0,1.0,4,1,0
279540262,15.960045,15.92393,4.806626,5.199088,170.80617,1.0,1.0,4,1,0
279840878,15.843912,15.926649,4.8584213,5.0568743,171.2106,1.0,1.0,4,1,0
280141835,16.001522,15.936594,4.910217,4.9697847,171.61493,1.0,1.0,4,1,0
280441845,15.943455,15.943496,4.9516535,4.944722,172.02367,1.0,1.0,4,1,0
280741781,16.067883,15.95425,5.0345263,4.9542384,172.43765,1.0,1.0,4,1,0
281041800,15.868797,15.950946,5.5110455,5.025465,172.86427,1.0,1.0,4,1,0
281342586,15.354492,15.89917,10.006898,6.0951004,173.4934,0.99970996,1.0000559,4,1,0
281643376,15.470626,15.809854,11.633278,7.9908295,174.39966,1.0,1.0,4,1,0
281955363,15.42915,15.7080145,12.814216,9.8302145,175.48099,0.99962956,1.0000715,4,1,0
282255432,15.420855,15.617132,11.3743,11.041966,176.56308,0.9983872,1.000311,4,1,0
282555360,15.495512,15.566691,11.964769,11.450101,177.5676,1.0,1.0,4,1,0
282856945,15.321312,15.520901,12.700266,11.791472,178.60033,1.0,1.0,4,1,0
283156960,15.196883,15.4713745,11.436455,12.107279,179.65732,0.9995798,1.0000811,4,1,0
283456975,15.296426,15.458033,12.54488,12.022359,180.64432,0.99994814,1.00001,4,1,0
283756948,15.4125595,15.4386425,12.627752,11.957827,181.63486,1.0,1.0,4,1,0
284056997,15.4042635,15.418799,12.099438,12.013389,182.64435,1.0,1.0,4,1,0
284358489,15.379378,15.422149,10.980654,11.724768,183.59273,0.9999925,1.0000015,4,1,0
284670648,15.379378,15.424763,11.208554,11.448773,184.55037,0.9999498,1.0000097,4,1,0
284970495,15.487216,15.429059,10.856344,11.246135,185.46312,1.0,1.0,4,1,0
285270498,15.462331,15.435786,10.814908,11.060789,186.36176,1.0,1.0,4,1,0
285570469,15.520397,15.439355,10.835627,10.993224,187.2697,1.0,1.0,4,1,0
285872140,15.395968,15.4386425,11.519327,11.034576,188.19661,0.99985117,1.0000287,4,1,0
286172163,15.478921,15.439751,10.473058,10.999977,189.11224,1.0,1.0,4,1,0
286472212,15.7360735,15.461198,8.421954,10.3816595,189.90364,1.0,1.0,4,1,0
286772223,15.678007,15.517652,6.256901,9.004721,190.48578,1.0,1.0,4,1,0
287072230,15.96834,15.5953665,4.4958525,7.4371924,190.91333,1.0,1.0,4,1,0
287373654,16.034702,15.663349,4.4958525,6.33313,191.3028,1.0,1.0,4,1,0
287673705,15.984931,15.736562,3.957179,5.417407,191.63947,1.0,1.0,4,1,0
287985651,15.976636,15.801319,3.8432288,4.797481,191.97762,1.0,1.0,4,1,0
288285657,15.984931,15.847037,3.8743062,4.3990507,192.29362,1.0,1.0,4,1,0
288585846,15.984931,15.87904,3.9778972,4.2355294,192.62576,1.0,1.0,4,1,0
288887290,16.067883,15.916222,3.853588,4.0912395,192.94983,1.0,1.0,4,1,0
289187329,16.059587,15.9378605,4.0296926,4.061325,193.28433,1.0,1.0,4,1,0
289487279,16.018112,15.956083,4.102206,4.053128,193.62067,1.0,1.0,4,1,0
289787260,16.009817,15.971139,4.0089746,4.038387,193.95512,1.0,1.0,4,1,0
290099316,15.96834,15.980716,3.9882565,4.0882254,194.31615,1.0,1.0,4,1,0
290401578,15.993226,15.984151,4.257593,4.146575,194.67126,1.0,1.0,4,1,0
290701757,16.042997,15.990247,4.4544163,4.2496886,195.03851,1.0,1.0,4,1,0
291012818,15.976636,15.984403,4.9930897,4.4179177,195.43965,1.0,1.0,4,1,0
291312887,15.960045,15.974457,4.9620123,4.600084,195.84569,1.0,1.0,4,1,0
291612898,15.960045,15.969779,4.9930897,4.75084,196.26047,1.0,1.0,4,1,0
291914499,15.926865,15.957281,5.0345263,4.8757267,196.68451,1.0,1.0,4,1,0
292214559,15.976636,15.95441,5.179554,4.995178,197.11534,1.0,1.0,4,1,0
292514481,15.926865,15.950031,5.0656037,5.069707,197.5471,1.0,1.0,4,1,0
292826859,15.868797,15.942134,5.200272,5.129452,197.9997,1.0,1.0,4,1,0
293126434,15.9019785,15.938529,5.2727857,5.2198896,198.44565,1.0,1.0,4,1,0
293428043,15.843912,15.930804,5.303863,5.2668524,198.89316,1.0,1.0,4,1,0
293729244,15.976636,15.933866,5.283145,5.26718,199.33372,1.0,1.0,4,1,0
294028123,15.976636,15.926447,5.490327,5.330102,199.78319,1.0,1.0,4,1,0
294328231,15.960045,15.918887,5.3970947,5.414361,200.2452,1.0,1.0,4,1,0
294628203,15.993226,15.921984,5.0552444,5.333507,200.68028,1.0,1.0,4,1,0
294929799,15.943455,15.920869,5.3349404,5.2791615,201.11461,1.0,1.0,4,1,0
295229733,15.960045,15.914738,5.479968,5.3515873,201.56943,1.0,1.0,4,1,0
295541678,15.9019785,15.915022,5.3452992,5.3924723,202.0419,1.0,1.0,4,1,0
295841722,15.926865,15.91734,5.4178133,5.365646,202.48566,1.0,1.0,4,1,0
296141728,15.893683,15.91837,5.189913,5.3346677,202.92639,1.0,1.0,4,1,0
296443353,15.93516,15.918852,5.3142223,5.3014555,203.36656,1.0,1.0,4,1,0
296743410,15.984931,15.92238,5.1277585,5.276121,203.80334,1.0,1.0,4,1,0
297043423,15.918569,15.914713,5.189913,5.2535095,204.23842,1.0,1.0,4,1,0
297343397,15.93516,15.916791,4.920576,5.1721654,204.66028,1.0,1.0,4,1,0
297643381,15.96834,15.92759,4.7341123,5.035739,205.06297,1.0,1.0,4,1,0
297944945,15.860502,15.931128,4.713394,4.9156857,205.45987,1.0,1.0,4,1,0
298244910,15.943455,15.941429,4.5165706,4.779498,205.84091,1.0,1.0,4,1,0
298544970,15.993226,15.948445,4.6305213,4.703242,206.22342,1.0,1.0,4,1,0
298844925,15.96834,15.949839,4.537289,4.657455,206.60593,1.0,1.0,4,1,0
299157003,16.001522,15.955386,4.4544163,4.6061788,206.99907,1.0,1.0,4,1,0
299458463,16.009817,15.96554,4.444057,4.550685,207.37296,1.0,1.0,4,1,0
299758491,16.059587,15.970316,4.5165706,4.515773,207.74461,1.0,1.0,4,1,0
300058442,16.026407,15.968375,4.682317,4.5550404,208.12845,1.0,1.0,4,1,0
300358495,15.9019785,15.961821,5.324581,4.7150908,208.5391,1.0,1.0,4,1,0
300658515,15.926865,15.940963,5.9772053,5.125383,209.01604,1.0,1.0,4,1,0
300960121,15.9019785,15.92711,5.811459,5.4227343,209.5084,1.0,1.0,4,1,0
301260055,15.877092,15.912848,5.6353545,5.5756164,209.99283,1.0,1.0,4,1,0
301572539,15.918569,15.91847,5.003449,5.390908,210.43974,1.0,1.0,4,1,0
301872868,16.001522,15.927022,4.6098027,5.18857,210.84854,1.0,1.0,4,1,0
302172067,16.018112,15.936387,4.6305213,4.9602275,211.23196,1.0,1.0,4,1,0
302473642,16.084475,15.9533615,4.1850796,4.7329063,211.60092,1.0,1.0,4,1,0
302773805,16.026407,15.971417,4.1747203,4.489959,211.94469,1.0,1.0,4,1,0
303073972,16.026407,15.982439,4.2057977,4.3656106,212.29274,1.0,1.0,4,1,0
303374378,15.960045,15.989271,4.2265162,4.30496,212.64415,1.0,1.0,4,1,0
303674412,15.960045,15.997027,4.0711293,4.2200947,212.98514,1.0,1.0,4,1,0
303975234,16.026407,16.000807,4.122925,4.1797094,213.3291,1.0,1.0,4,1,0
304287324,16.001522,15.996496,4.195439,4.218784,213.69945,1.0,1.0,4,1,0
304587263,15.918569,15.999274,4.3715434,4.256703,214.05917,1.0,1.0,4,1,0
304887287,15.976636,15.994027,4.599444,4.350551,214.4332,1.0,1.0,4,1,0
305187315,15.96834,15.986026,4.692676,4.480336,214.82266,1.0,1.0,4,1,0
305488940,15.943455,15.984588,4.547648,4.530182,215.20918,1.0,1.0,4,1,0
305788979,15.885388,15.981705,4.930935,4.625533,215.60522,1.0,1.0,4,1,0
306088946,15.893683,15.971483,5.2106314,4.8044395,216.02782,1.0,1.0,4,1,0
306388930,15.877092,15.952495,5.366018,4.979167,216.46436,1.0,1.0,4,1,0
306689055,15.877092,15.940081,5.5524817,5.1480865,216.91379,1.0,1.0,4,1,0
306990597,15.868797,15.930176,5.8528957,5.366559,217.39009,1.0,1.0,4,1,0
307290505,15.802436,15.913269,6.1015143,5.623075,217.89003,1.0,1.0,4,1,0
307590520,15.860502,15.896377,6.256901,5.840041,218.40392,1.0,1.0,4,1,0
307890485,15.819026,15.886232,5.7285867,5.8420367,218.89247,1.0,1.0,4,1,0
308202735,15.868797,15.879281,5.3142223,5.69319,219.36787,1.0,1.0,4,1,0
308504190,15.96834,15.888308,4.910217,5.4281063,219.79045,1.0,1.0,4,1,0
308804087,15.810731,15.895544,4.568366,5.1348624,220.18158,1.0,1.0,4,1,0
309104148,15.93516,15.900994,4.6098027,4.9088497,220.56207,1.0,1.0,4,1,0
309404200,15.852207,15.9074745,4.040052,4.719663,220.93414,1.0,1.0,4,1,0
309704962,16.009817,15.921877,3.936461,4.4553347,221.27345,1.0,1.0,4,1,0
310017745,15.943455,15.942975,3.8121517,4.2025175,221.60707,1.0,1.0,4,1,0
310317836,16.12595,15.95008,3.3977873,4.013562,221.91898,1.0,1.0,4,1,0
310617818,15.976636,15.970794,3.5117373,3.8065238,222.20914,1.0,1.0,4,1,0
310917755,16.042997,15.987725,3.5946102,3.7094438,222.50616,1.0,1.0,4,1,0
311219448,15.860502,15.992258,4.0296926,3.7874784,222.83171,1.0,1.0,4,1,0
311519414,16.026407,15.9969015,4.340466,3.9395432,223.17827,1.0,1.0,4,1,0
311831396,16.059587,15.996711,4.4854937,4.125628,223.55893,1.0,1.0,4,1,0
312131406,15.893683,15.983189,4.8584213,4.362387,223.95093,1.0,1.0,4,1,0
312431438,15.993226,15.979755,4.6615987,4.5145493,224.34706,1.0,1.0,4,1,0
312732887,15.960045,15.977201,4.930935,4.6192756,224.7463,1.0,1.0,4,1,0
313033044,16.026407,15.963896,5.179554,4.7843776,225.16528,1.0,1.0,4,1,0
313333017,15.9019785,15.945108,5.2727857,5.0197787,225.61372,1.0,1.0,4,1,0
313632972,16.001522,15.939524,4.9723716,5.066086,226.0427,1.0,1.0,4,1,0
313932961,15.93516,15.937993,4.816985,5.0263863,226.45703,1.0,1.0,4,1,0
314234500,15.943455,15.936557,4.8480625,4.9745035,226.86778,1.0,1.0,4,1,0
314546468,15.918569,15.943385,4.8687806,4.8984165,227.28293,1.0,1.0,4,1,0
314846487,15.96834,15.950883,4.910217,4.870512,227.68497,1.0,1.0,4,1,0
315146533,15.93516,15.951768,4.930935,4.8902307,228.09453,1.0,1.0,4,1,0
315446683,16.034702,15.952765,5.0552444,4.916865,228.50716,1.0,1.0,4,1,0
315748525,15.960045,15.949696,5.096681,4.9889207,228.93408,1.0,1.0,4,1,0
316048495,15.976636,15.943304,4.9930897,5.003078,229.35307,1.0,1.0,4,1,0
316348048,15.984931,15.942944,5.044885,5.014111,229.7717,1.0,1.0,4,1,0
316660059,15.943455,15.935863,5.0656037,5.051954,230.21355,1.0,1.0,4,1,0
316960481,16.001522,15.932322,5.2313495,5.1034293,230.64626,1.0,1.0,4,1,0
317261800,15.960045,15.932063,5.200272,5.1117225,231.07573,1.0,1.0,4,1,0
317561811,15.893683,15.9311075,5.096681,5.0982065,231.49928,1.0,1.0,4,1,0
317861816,15.96834,15.936385,4.806626,5.027556,231.90967,1.0,1.0,4,1,0
318161820,16.001522,15.93982,4.64088,4.9624457,232.31537,1.0,1.0,4,1,0
318461680,15.893683,15.947355,4.52693,4.8272576,232.70094,1.0,1.0,4,1,0
318763359,15.918569,15.958602,4.361184,4.6809034,233.07478,1.0,1.0,4,1,0
319063386,15.93516,15.964082,4.402621,4.5625424,233.43983,1.0,1.0,4,1,0
319363379,16.076178,15.972211,4.1125655,4.4250417,233.79228,1.0,1.0,4,1,0
319663291,15.993226,15.982463,4.0711293,4.292929,234.13353,1.0,1.0,4,1,0
319975386,16.067883,15.997137,3.9468198,4.15949,234.47784,1.0,1.0,4,1,0
320264883,16.067883,16.003887,3.770715,4.05726,234.79155,1.0,1.0,4,1,0
320576869,15.993226,16.011423,3.5635328,3.9034052,235.11128,1.0,1.0,4,1,0
320876861,15.918569,16.025547,3.3563507,3.7260458,235.40004,1.0,1.0,4,1,0
321176902,16.101065,16.032436,3.283837,3.5944617,235.68309,1.0,1.0,4,1,0
321476971,16.184017,16.045675,3.2216823,3.4818444,235.95944,1.0,1.0,4,1,0
321778616,16.101065,16.059378,3.1802459,3.371326,236.22792,1.0,1.0,4,1,0
322078597,16.076178,16.063208,3.2009642,3.3143175,236.49632,1.0,1.0,4,1,0
322378532,15.926865,16.066406,3.076655,3.2552319,236.76056,1.0,1.0,4,1,0
322678582,16.134245,16.069246,3.076655,3.1960957,237.01947,1.0,1.0,4,1,0
322978632,16.084475,16.07419,3.1802459,3.1669583,237.27971,1.0,1.0,4,1,0
323280079,16.026407,16.075962,3.0455778,3.1521673,237.54257,1.0,1.0,4,1,0
323580174,16.192312,16.081724,2.9523456,3.063031,237.78688,1.0,1.0,4,1,0
323880060,15.976636,16.084833,2.7348044,3.0042868,238.03009,1.0,1.0,4,1,0
324180096,16.167427,16.08651,2.9005501,2.9883366,238.27736,1.0,1.0,4,1,0
324481704,16.134245,16.098686,2.8591137,2.9322336,238.5161,1.0,1.0,4,1,0
324781673,16.225492,16.10781,2.7969592,2.8876667,238.75136,1.0,1.0,4,1,0
325081745,16.167427,16.11533,2.589777,2.8421223,238.98286,1.0,1.0,4,1,0
325393686,16.225492,16.119072,2.7348044,2.7869372,239.21732,1.0,1.0,4,1,0
325693733,16.09277,16.12933,2.6622906,2.7527277,239.44214,1.0,1.0,4,1,0
325995284,16.117655,16.13492,2.693368,2.758005,239.67389,1.0,1.0,4,1,0
326295207,16.175722,16.139456,2.683009,2.7091548,239.89328,1.0,1.0,4,1,0
326595281,16.242083,16.147287,2.4965448,2.656328,240.10863,1.0,1.0,4,1,0
326895268,16.101065,16.144157,2.9212682,2.686609,240.33456,1.0,1.0,4,1,0
327195291,16.117655,16.140345,3.0041413,2.7409132,240.56917,1.0,1.0,4,1,0
327496913,16.167427,16.134048,3.4081464,2.9091923,240.83281,1.0,1.0,4,1,0
327796976,16.101065,16.119982,3.2009642,3.1103811,241.11867,1.0,1.0,4,1,0
328109096,16.184017,16.115772,2.9419866,3.14689,241.39828,1.0,1.0,4,1,0
328409096,16.175722,16.112068,3.3459918,3.1508694,241.66013,1.0,1.0,4,1,0
328709031,16.042997,16.107872,3.3252733,3.2354903,241.94081,1.0,1.0,4,1,0
329010502,16.14254,16.10345,3.1906052,3.2959754,242.22534,1.0,1.0,4,1,0
329310475,16.14254,16.10694,2.983423,3.1761544,242.47508,1.0,1.0,4,1,0
329610561,16.059587,16.112568,2.8487546,3.0338569,242.71046,1.0,1.0,4,1,0
329910472,16.12595,16.120197,2.7762408,2.9445117,242.94418,1.0,1.0,4,1,0
330210486,16.14254,16.127283,2.693368,2.876879,243.17552,1.0,1.0,4,1,0
330512230,16.117655,16.13097,2.9005501,2.855801,243.41211,1.0,1.0,4,1,0
330812190,16.175722,16.126932,2.9109092,2.8597865,243.6504,1.0,1.0,4,1,0
331112166,16.184017,16.128428,2.714086,2.844751,243.88617,1.0,1.0,4,1,0
331412147,16.184017,16.133587,2.4551084,2.7183063,244.09741,1.0,1.0,4,1,0
331712165,16.14254,16.13264,2.4861858,2.596739,244.29854,1.0,1.0,4,1,0
332013693,16.192312,16.146692,2.3929539,2.482417,244.4921,1.0,1.0,4,1,0
332313713,16.208902,16.158138,2.2272081,2.412782,244.68454,1.0,1.0,4,1,0
332613662,16.167427,16.166971,1.9371531,2.2657857,244.85637,1.0,1.0,4,1,0
332925853,16.26697,16.18119,1.4917115,2.0310125,245.0043,1.0,1.0,4,1,0
333225657,16.184017,16.194407,1.3777614,1.8188769,245.12932,1.0,1.0,4,1,0
333527377,16.325035,16.205055,1.4917115,1.6783186,245.25226,1.0,1.0,4,1,0
333827364,16.26697,16.220072,1.6056617,1.5973979,245.37505,1.0,1.0,4,1,0
334127356,16.275265,16.228867,1.7610483,1.6148014,245.51125,1.0,1.0,4,1,0
334427277,16.192312,16.23125,1.926794,1.6632842,245.65564,1.0,1.0,4,1,0
334727231,16.250378,16.236729,1.833562,1.7397866,245.81076,1.0,1.0,4,1,0
335028897,16.258675,16.232895,2.216849,1.8505932,245.97853,1.0,1.0,4,1,0
335328927,16.200607,16.220133,2.7555227,2.0704541,246.17754,1.0,1.0,4,1,0
335640966,16.026407,16.20107,2.4861858,2.32905,246.41301,1.0,1.0,4,1,0
335940999,16.200607,16.196453,2.9627047,2.5004175,246.64214,1.0,1.0,4,1,0
336242581,16.15913,16.184309,3.4185057,2.7539723,246.9037,1.0,1.0,4,1,0
336542559,16.009817,16.162851,4.0504107,3.163591,247.21713,1.0,1.0,4,1,0
336842651,16.059587,16.1363,4.423339,3.6156428,247.5742,1.0,1.0,4,1,0
337142585,15.95175,16.110472,4.3922615,4.0063624,247.9578,1.0,1.0,4,1,0
337442610,16.076178,16.091324,4.692676,4.272518,248.34679,1.0,1.0,4,1,0
337744098,15.993226,16.073406,4.713394,4.403408,248.73256,1.0,1.0,4,1,0
338056168,16.026407,16.052885,4.806626,4.5453653,249.14313,1.0,1.0,4,1,0
338356157,15.744369,16.033516,5.386736,4.7694483,249.56679,1.0,1.0,4,1,0
338656152,16.009817,16.01661,5.2520676,4.928443,249.998,1.0,1.0,4,1,0
338956207,15.93516,16.006832,5.428172,5.05113,250.43312,1.0,1.0,4,1,0
339257728,15.910274,15.993197,4.9723716,5.11623,250.87169,1.0,1.0,4,1,0
339557669,15.960045,15.991015,5.044885,4.9954057,251.27168,1.0,1.0,4,1,0
339857683,15.960045,15.9812565,4.6615987,4.966122,251.68358,1.0,1.0,4,1,0
340157684,15.993226,15.981021,5.117399,4.9844966,252.0996,1.0,1.0,4,1,0
340457749,16.018112,15.979107,4.8687806,5.027672,252.52385,1.0,1.0,4,1,0
340759357,15.76096,15.9577055,6.629829,5.37119,253.01059,1.0,1.0,4,1,0
341059309,15.79414,15.938925,6.4433646,5.7165093,253.53087,1.0,1.0,4,1,0
341371341,15.827321,15.911764,7.510353,6.1884604,254.12228,1.0,1.0,4,1,0
341671271,15.711188,15.872737,8.194055,6.880308,254.77957,1.0,1.0,4,1,0
341971304,15.802436,15.840086,7.334248,7.2697678,255.43764,1.0,1.0,4,1,0
342273148,15.79414,15.825563,6.640188,7.1888666,256.02966,1.0,1.0,4,1,0
342573594,15.5701685,15.803446,8.370159,7.445435,256.67517,1.0,1.0,4,1,0
342873781,15.893683,15.795532,6.7127013,7.3873377,257.28952,1.0,1.0,4,1,0
343172979,15.910274,15.796112,6.256901,7.131171,257.84918,1.0,1.0,4,1,0
343472972,15.827321,15.810084,5.8011003,6.6957636,258.35196,1.0,1.0,4,1,0
343774570,15.918569,15.826461,5.749305,6.3210206,258.8334,1.0,1.0,4,1,0
344074942,15.835616,15.842522,5.7596636,6.100626,259.31467,1.0,1.0,4,1,0
344375216,15.852207,15.848631,5.770023,5.993552,259.7999,1.0,1.0,4,1,0
344674589,15.960045,15.857974,5.407454,5.87285,260.27377,1.0,1.0,4,1,0
344986622,15.918569,15.8691635,5.676791,5.705056,260.74557,1.0,1.0,4,1,0
345276256,15.79414,15.876316,5.6146364,5.6343036,261.18774,1.0,1.0,4,1,0
345588176,15.96834,15.886536,5.4385314,5.557374,261.65988,1.0,1.0,4,1,0
345888196,15.885388,15.881986,5.894332,5.6242414,262.1356,1.0,1.0,4,1,0
346188153,15.827321,15.87688,5.8218184,5.69396,262.61972,1.0,1.0,4,1,0
346489642,15.9019785,15.8770895,5.790741,5.72798,263.1035,1.0,1.0,4,1,0
346789696,15.9019785,15.884433,5.707868,5.743816,263.58453,1.0,1.0,4,1,0
347089712,15.9019785,15.884745,5.873614,5.7692423,264.06842,1.0,1.0,4,1,0
347389698,15.893683,15.887571,5.562841,5.718563,264.5395,1.0,1.0,4,1,0
347689657,15.877092,15.894193,5.68715,5.623213,264.99567,1.0,1.0,4,1,0
347991311,15.93516,15.895184,5.303863,5.525316,265.44727,1.0,1.0,4,1,0
348291354,15.810731,15.89025,6.3604918,5.555657,265.9097,1.0,1.0,4,1,0
348591329,15.918569,15.876729,5.873614,5.819365,266.43018,1.0,1.0,4,1,0
348903341,15.893683,15.888027,4.537289,5.505865,266.87296,1.0,1.0,4,1,0
349203293,15.976636,15.911255,4.216157,5.0887613,267.24545,1.0,1.0,4,1,0
349504860,16.09277,15.933215,4.019334,4.6965337,267.58963,1.0,1.0,4,1,0
349804969,15.960045,15.957144,3.5220966,4.3210044,267.90356,1.0,1.0,4,1,0
350104862,16.101065,15.975019,3.3459918,3.9814239,268.19333,1.0,1.0,4,1,0
350404902,16.051292,15.998882,2.8383956,3.5947418,268.4456,1.0,1.0,4,1,0
350704965,15.926865,16.024187,2.6622906,3.2760172,268.67908,1.0,1.0,4,1,0
351006462,16.084475,16.04661,2.6519315,3.024263,268.90067,1.0,1.0,4,1,0
351306570,16.09277,16.06575,2.7658818,2.9064095,269.1275,1.0,1.0,4,1,0
351606510,16.167427,16.079613,2.7866,2.829726,269.3534,1.0,1.0,4,1,0
351906507,16.051292,16.091114,2.8280363,2.818656,269.58636,1.0,1.0,4,1,0
352206498,16.101065,16.097546,3.36671,2.931615,269.8438,1.0,1.0,4,1,0
352508127,16.167427,16.095821,3.2113235,3.1208656,270.12967,1.0,1.0,4,1,0
352808108,16.208902,16.09596,3.2113235,3.1862414,270.40396,1.0,1.0,4,1,0
353120064,16.034702,16.094242,3.0662959,3.1968806,270.68198,1.0,1.0,4,1,0
353420148,16.208902,16.10022,2.403313,3.0051582,270.9108,1.0,1.0,4,1,0
353720144,16.076178,16.101692,2.983423,2.8775327,271.13278,1.0,1.0,4,1,0
354021705,16.134245,16.106436,2.9937823,2.9002714,271.37878,1.0,1.0,4,1,0
354321700,16.10936,16.110123,3.1491687,2.9532547,271.6313,1.0,1.0,4,1,0
354621707,16.067883,16.104845,2.9005501,3.011922,271.89035,1.0,1.0,4,1,0
354921690,16.018112,16.102314,3.076655,3.0339954,272.14557,1.0,1.0,4,1,0
355221750,16.12595,16.109892,2.7969592,2.9400814,272.37885,1.0,1.0,4,1,0
355523432,16.184017,16.118612,2.5172632,2.8265874,272.60223,1.0,1.0,4,1,0
355823396,16.150835,16.126982,2.3618765,2.6675832,272.8048,1.0,1.0,4,1,0
356123393,16.018112,16.130543,2.4447494,2.6100597,273.01468,1.0,1.0,4,1,0
356435367,16.167427,16.129396,2.5483406,2.6256988,273.2437,1.0,1.0,4,1,0
356736187,16.101065,16.13376,2.610495,2.6036782,273.4589,1.0,1.0,4,1,0
357036969,16.258675,16.13441,2.0614624,2.548588,273.66748,1.0,1.0,4,1,0
357336941,16.018112,16.141876,2.4861858,2.4468238,273.8567,1.0,1.0,4,1,0
357637030,16.134245,16.139097,2.5172632,2.4951403,274.0719,1.0,1.0,4,1,0
357936965,16.167427,16.145,2.216849,2.446626,274.2696,1.0,1.0,4,1,0
358238603,16.12595,16.150654,2.5276222,2.4326649,274.4709,1.0,1.0,4,1,0
358538518,16.233788,16.150682,2.3722358,2.4600217,274.68018,1.0,1.0,4,1,0
358838460,16.200607,16.15258,2.5379815,2.4206412,274.87607,1.0,1.0,4,1,0
359138555,16.10936,16.15431,2.5172632,2.4722676,275.08817,1.0,1.0,4,1,0
359438525,16.117655,16.14949,2.9212682,2.576216,275.31448,1.0,1.0,4,1,0
359740108,16.051292,16.144625,3.087014,2.7404041,275.5646,1.0,1.0,4,1,0
360040116,16.084475,16.136173,3.263119,2.9265473,275.83112,1.0,1.0,4,1,0
360340108,16.009817,16.125603,3.5428147,3.127613,276.1163,1.0,1.0,4,1,0
360652113,16.12595,16.111937,3.6153286,3.301984,276.425,1.0,1.0,4,1,0
360952079,16.175722,16.108744,3.2941964,3.3602014,276.71295,1.0,1.0,4,1,0
361253672,16.208902,16.108324,3.2009642,3.3260653,276.98773,1.0,1.0,4,1,0
361553692,16.134245,16.10421,3.3459918,3.3279626,277.26498,1.0,1.0,4,1,0
361853888,16.059587,16.102135,3.36671,3.3028824,277.537,1.0,1.0,4,1,0
362153702,16.12595,16.100153,3.0662959,3.2680595,277.80524,1.0,1.0,4,1,0
362453694,16.09277,16.1016,3.283837,3.2970645,278.08298,1.0,1.0,4,1,0
362755256,16.10936,16.102478,3.3977873,3.2831142,278.3565,1.0,1.0,4,1,0
363067329,16.117655,16.10382,3.36671,3.3139594,278.64706,1.0,1.0,4,1,0
363367256,15.993226,16.098547,3.6567652,3.3802898,278.9362,1.0,1.0,4,1,0
363667370,16.076178,16.091656,3.5946102,3.4736488,279.23798,1.0,1.0,4,1,0
363967287,15.984931,16.084644,3.6982014,3.573708,279.5479,1.0,1.0,4,1,0
364268918,16.12595,16.082771,3.8950243,3.6607327,279.8654,1.0,1.0,4,1,0
364568958,16.09277,16.077663,3.9468198,3.7735014,280.1935,1.0,1.0,4,1,0
364868857,16.067883,16.068558,4.423339,3.9345374,280.54053,1.0,1.0,4,1,0
365181020,16.001522,16.061165,4.3093886,4.0692067,280.90982,1.0,1.0,4,1,0
365482645,16.051292,16.048784,4.599444,4.2478046,281.28748,1.0,1.0,4,1,0
365782627,15.96834,16.035097,4.6615987,4.3817143,281.66946,1.0,1.0,4,1,0
366082598,16.067883,16.029333,4.4544163,4.3991218,282.03864,1.0,1.0,4,1,0
366382574,16.026407,16.021023,4.5165706,4.442838,282.41446,1.0,1.0,4,1,0
366682510,15.96834,16.013453,4.3715434,4.475373,282.79343,1.0,1.0,4,1,0
366984116,15.993226,16.005863,4.319748,4.448007,283.1632,1.0,1.0,4,1,0
367284019,15.976636,16.00782,4.330107,4.405997,283.52493,1.0,1.0,4,1,0
367596189,16.018112,16.004917,4.5890846,4.475435,283.92163,1.0,1.0,4,1,0
367896115,15.96834,16.00063,4.6512394,4.5183783,284.30283,1.0,1.0,4,1,0
368196138,15.976636,15.995768,4.340466,4.58859,284.69498,1.0,1.0,4,1,0
368497714,16.026407,15.998768,4.361184,4.5052447,285.06195,1.0,1.0,4,1,0
368797767,16.059587,16.004948,3.7810743,4.3427916,285.40555,1.0,1.0,4,1,0
369097769,16.034702,16.017813,3.5428147,4.072087,285.7108,1.0,1.0,4,1,0
369397640,16.059587,16.029163,3.4081464,3.797227,285.99268,1.0,1.0,4,1,0
369709763,16.051292,16.043287,3.242401,3.581256,286.27728,1.0,1.0,4,1,0
370011326,16.059587,16.053602,3.4703012,3.5003302,286.55936,1.0,1.0,4,1,0
370311337,16.167427,16.060867,3.2216823,3.4260566,286.83603,1.0,1.0,4,1,0
370611417,16.026407,16.063576,3.4185057,3.368734,287.10947,1.0,1.0,4,1,0
370911409,16.134245,16.071377,3.387428,3.3745878,287.39078,1.0,1.0,4,1,0
371211361,16.051292,16.071877,3.5013785,3.4583738,287.68918,1.0,1.0,4,1,0
371513038,16.001522,16.06332,3.957179,3.6153805,288.011,1.0,1.0,4,1,0
371813048,16.067883,16.059372,3.8950243,3.7383475,288.33792,1.0,1.0,4,1,0
372112986,16.101065,16.058107,4.0296926,3.8374245,288.6699,1.0,1.0,4,1,0
372412986,16.026407,16.055529,4.164361,3.9312499,289.0089,1.0,1.0,4,1,0
372714581,16.026407,16.047573,4.143643,4.021729,289.35748,1.0,1.0,4,1,0
373014508,16.059587,16.04311,4.319748,4.11451,289.71173,1.0,1.0,4,1,0
373314484,15.852207,16.018293,5.500686,4.590324,290.15005,1.0,1.0,4,1,0
373626809,15.9019785,15.9873085,6.0082827,5.0308843,290.6386,1.0,1.0,4,1,0
373926504,15.802436,15.953819,6.464083,5.515072,291.15668,1.0,1.0,4,1,0
374228658,15.960045,15.935285,5.966846,5.8173656,291.68555,1.0,1.0,4,1,0
374528129,15.910274,15.925643,5.469609,5.699158,292.14578,1.0,1.0,4,1,0
374828481,15.835616,15.921966,5.6353545,5.6535945,292.61047,1.0,1.0,4,1,0
375128163,15.810731,15.914459,5.8011003,5.6904397,293.08826,1.0,1.0,4,1,0
375428444,15.77755,15.9099045,5.9875646,5.751005,293.5751,1.0,1.0,4,1,0
375741962,15.885388,15.904729,5.8528957,5.794572,294.0854,1.0,1.0,4,1,0
376041712,15.860502,15.895801,6.184387,5.919955,294.59357,1.0,1.0,4,1,0
376342075,15.860502,15.885961,6.0082827,5.997859,295.10428,1.0,1.0,4,1,0
376641753,15.835616,15.886177,5.5732,5.933601,295.5919,1.0,1.0,4,1,0
376953705,16.042997,15.895419,5.1070404,5.6939816,296.0571,1.0,1.0,4,1,0
377255323,15.918569,15.907835,4.9930897,5.4463043,296.48248,1.0,1.0,4,1,0
377555316,15.918569,15.918569,4.6305213,5.206815,296.887,1.0,1.0,4,1,0
377855245,15.918569,15.932098,4.806626,5.00851,297.27942,1.0,1.0,4,1,0
378155266,15.918569,15.939349,4.692676,4.8739433,297.66876,1.0,1.0,4,1,0
378455325,15.960045,15.944231,4.6512394,4.7845964,298.05658,1.0,1.0,4,1,0
378756940,15.943455,15.952453,4.682317,4.743228,298.44852,1.0,1.0,4,1,0
379057021,16.042997,15.961207,4.692676,4.719228,298.8387,1.0,1.0,4,1,0
379357015,15.860502,15.960315,4.7341123,4.7215533,299.23248,1.0,1.0,4,1,0
379656970,16.042997,15.964772,4.64088,4.6669307,299.6146,1.0,1.0,4,1,0
379958462,15.893683,15.96937,4.7548304,4.663004,300.00443,1.0,1.0,4,1,0
380258486,16.001522,15.972702,4.723753,4.6905675,300.39896,1.0,1.0,4,1,0
380570506,15.960045,15.975691,4.568366,4.6221576,300.7918,1.0,1.0,4,1,0
380870446,15.993226,15.977391,4.433698,4.537484,301.15927,1.0,1.0,4,1,0
381170546,15.984931,15.97979,4.444057,4.4959226,301.52875,1.0,1.0,4,1,0
381472405,15.93516,15.977303,4.5787253,4.500457,301.90662,1.0,1.0,4,1,0
381772883,16.051292,15.977939,4.723753,4.539733,302.29,1.0,1.0,4,1,0
382072974,15.918569,15.97767,4.827344,4.6084943,302.68256,1.0,1.0,4,1,0
382372080,15.93516,15.976964,4.806626,4.6684113,303.07785,1.0,1.0,4,1,0
382672144,15.910274,15.970667,4.9723716,4.765649,303.4868,1.0,1.0,4,1,0
382974005,15.819026,15.963474,4.8584213,4.842589,303.9032,1.0,1.0,4,1,0
383285642,15.976636,15.960852,4.9516535,4.8985553,304.33395,1.0,1.0,4,1,0
383585707,15.960045,15.956785,5.1381173,4.9765797,304.75848,1.0,1.0,4,1,0
383885846,15.860502,15.9502125,5.1484766,5.073095,305.19382,1.0,1.0,4,1,0
384185704,15.95175,15.9482,5.2313495,5.1389513,305.62985,1.0,1.0,4,1,0
384487335,15.877092,15.9454565,5.428172,5.184023,306.07004,1.0,1.0,4,1,0
384787251,16.001522,15.942355,5.407454,5.2343698,306.51233,1.0,1.0,4,1,0
385087288,15.926865,15.933335,5.583559,5.3441243,306.97083,1.0,1.0,4,1,0
385399264,15.910274,15.930821,5.542123,5.4281435,307.4521,1.0,1.0,4,1,0
385699516,15.960045,15.926828,5.3142223,5.4239974,307.90454,1.0,1.0,4,1,0
386000917,15.9019785,15.929724,5.2520676,5.360663,308.34543,1.0,1.0,4,1,0
386300993,15.95175,15.926629,5.2520676,5.307443,308.78143,1.0,1.0,4,1,0
386601009,15.93516,15.923762,5.1691947,5.2557764,309.21292,1.0,1.0,4,1,0
386901103,16.018112,15.922471,5.044885,5.236406,309.64743,1.0,1.0,4,1,0
387200921,15.893683,15.919148,5.283145,5.2133245,310.07773,1.0,1.0,4,1,0
387502516,16.009817,15.924769,3.9261017,5.049519,310.48584,1.0,1.0,4,1,0
387802498,16.026407,15.942161,4.257593,4.672907,310.8265,1.0,1.0,4,1,0
388102509,15.93516,15.951144,4.599444,4.563232,311.19214,1.0,1.0,4,1,0
388402426,15.96834,15.950414,5.1484766,4.6968064,311.59784,1.0,1.0,4,1,0
388704212,15.810731,15.935913,5.604277,5.008516,312.05615,1.0,1.0,4,1,0
389016290,15.835616,15.921099,6.184387,5.363019,312.56363,1.0,1.0,4,1,0
389316308,15.77755,15.906551,6.453724,5.7247624,313.08517,1.0,1.0,4,1,0
389616258,15.810731,15.884811,6.826652,6.0935555,313.6383,1.0,1.0,4,1,0
389916323,15.810731,15.86623,6.930243,6.407554,314.21127,1.0,1.0,4,1,0
390217723,15.727778,15.846213,7.0856295,6.6617484,314.8009,1.0,1.0,4,1,0
390517705,15.744369,15.829089,7.396403,6.8891296,315.40338,1.0,1.0,4,1,0
390817640,15.711188,15.812022,7.4274797,7.079028,316.01706,1.0,1.0,4,1,0
391117664,15.819026,15.801397,7.334248,7.2068343,316.63406,1.0,1.0,4,1,0
391417698,15.835616,15.79222,7.3549666,7.2738867,317.2492,1.0,1.0,4,1,0
391719304,15.860502,15.781704,7.0131154,7.219349,317.84808,1.0,1.0,4,1,0
392019342,15.868797,15.782814,6.8059335,7.104688,318.42575,1.0,1.0,4,1,0
392331308,15.769255,15.787034,6.7127013,6.9858093,319.01685,1.0,1.0,4,1,0
392631354,15.9019785,15.793018,6.5365973,6.8238344,319.56573,1.0,1.0,4,1,0
392931340,15.76096,15.792808,6.5158787,6.6815877,320.1049,1.0,1.0,4,1,0
393232864,15.77755,15.793813,6.370851,6.5794015,320.64316,1.0,1.0,4,1,0
393532905,15.77755,15.800876,6.4330063,6.469818,321.16858,1.0,1.0,4,1,0
393832887,15.79414,15.807641,6.174028,6.370396,321.68726,1.0,1.0,4,1,0
394144991,15.868797,15.811413,6.3604918,6.3594456,322.23645,1.0,1.0,4,1,0
394445318,15.9019785,15.811569,6.4433646,6.3752613,322.77026,1.0,1.0,4,1,0
394746448,15.835616,15.809536,6.5158787,6.4209337,323.31326,1.0,1.0,4,1,0
395046510,15.860502,15.810969,6.7127013,6.4740424,323.8587,1.0,1.0,4,1,0
395346533,15.769255,15.807141,6.826652,6.564831,324.41705,1.0,1.0,4,1,0
395646621,15.76096,15.803673,6.671265,6.6206594,324.9761,1.0,1.0,4,1,0
395960450,15.79414,15.801879,6.671265,6.641455,325.55807,1.0,1.0,4,1,0
396260124,15.702892,15.798131,6.660906,6.657293,326.1143,1.0,1.0,4,1,0
396560130,15.802436,15.797445,6.629829,6.6491523,326.66766,1.0,1.0,4,1,0
396860083,15.852207,15.79694,6.5158787,6.6194224,327.2155,1.0,1.0,4,1,0
397160143,15.76096,15.793537,6.5158787,6.5965734,327.76248,1.0,1.0,4,1,0
397461736,15.819026,15.7959385,6.5365973,6.5745053,328.31033,1.0,1.0,4,1,0
397773754,15.744369,15.795815,6.464083,6.5587654,328.8769,1.0,1.0,4,1,0
398073780,15.810731,15.793139,6.5158787,6.521021,329.41595,1.0,1.0,4,1,0
398373787,15.819026,15.785437,6.5883927,6.55253,329.96606,1.0,1.0,4,1,0
398673768,15.77755,15.784504,6.557315,6.531775,330.50812,1.0,1.0,4,1,0
398975436,15.785845,15.778804,6.5055194,6.521227,331.05313,1.0,1.0,4,1,0
399275369,15.702892,15.774832,6.7955747,6.591638,331.61096,1.0,1.0,4,1,0
399575379,15.77755,15.776404,6.5365973,6.586265,332.15997,1.0,1.0,4,1,0
399875435,15.810731,15.777875,6.4330063,6.5808215,332.7082,1.0,1.0,4,1,0
400175421,15.694597,15.783781,6.629829,6.550162,333.25037,1.0,1.0,4,1,0
400476998,15.868797,15.786934,6.49516,6.564716,333.80267,1.0,1.0,4,1,0
400776929,15.785845,15.788004,6.5365973,6.55573,334.34805,1.0,1.0,4,1,0
401076986,15.810731,15.787403,6.049719,6.53726,334.8915,1.0,1.0,4,1,0
401388954,15.7360735,15.788091,6.7127013,6.398058,335.42587,1.0,1.0,4,1,0
401689810,15.7360735,15.787168,6.0290008,6.3884597,335.96173,1.0,1.0,4,1,0
401990593,15.852207,15.792757,5.946128,6.2241755,336.461,1.0,1.0,4,1,0
402290556,15.810731,15.795717,6.2154646,6.173766,336.9679,1.0,1.0,4,1,0
402590618,15.852207,15.803744,5.883973,6.068145,337.4609,1.0,1.0,4,1,0
402890554,15.852207,15.817875,5.1381173,5.6993756,337.89124,1.0,1.0,4,1,0
403192066,16.001522,15.832311,4.9930897,5.4716816,338.32126,1.0,1.0,4,1,0
403492079,15.860502,15.848695,4.920576,5.232893,338.7276,1.0,1.0,4,1,0
403792072,15.910274,15.86351,4.5580072,5.061696,339.1291,1.0,1.0,4,1,0
404092118,15.96834,15.879073,4.402621,4.8518414,339.5084,1.0,1.0,4,1,0
404392046,15.93516,15.892449,5.1277585,4.8054643,339.90015,1.0,1.0,4,1,0
404693682,15.984931,15.900455,3.9986153,4.7256355,340.28928,1.0,1.0,4,1,0
404993683,16.018112,15.925003,3.853588,4.3485146,340.60394,1.0,1.0,4,1,0
405305691,15.926865,15.933995,4.4854937,4.372577,340.98355,1.0,1.0,4,1,0
405605674,15.96834,15.9388075,3.6774833,4.31941,341.33853,1.0,1.0,4,1,0
405905664,16.009817,15.959026,3.6153286,4.009733,341.63345,1.0,1.0,4,1,0
406207225,15.993226,15.965559,4.236875,4.000206,341.96408,1.0,1.0,4,1,0
406507267,16.018112,15.972558,3.48066,3.9126875,342.2824,1.0,1.0,4,1,0
406807367,16.018112,15.988258,3.0973732,3.6371372,342.55173,1.0,1.0,4,1,0
407107282,16.101065,16.002356,3.2009642,3.4874778,342.82382,1.0,1.0,4,1,0
407407283,16.076178,16.013845,3.5013785,3.39049,343.09235,1.0,1.0,4,1,0
407708895,16.034702,16.01634,3.5220966,3.49188,343.39807,1.0,1.0,4,1,0
408008898,16.001522,16.014635,3.6360466,3.586677,343.70895,1.0,1.0,4,1,0
408309003,15.926865,16.01572,3.6256876,3.557653,344.0013,1.0,1.0,4,1,0
408608898,16.042997,16.017784,3.4392238,3.4887943,344.2831,1.0,1.0,4,1,0
408908938,16.084475,16.02615,3.1906052,3.4252632,344.56168,1.0,1.0,4,1,0
409222676,15.943455,16.033861,3.1284504,3.2779307,344.82907,1.0,1.0,4,1,0
409522572,16.067883,16.038418,3.0559368,3.2162652,345.0907,1.0,1.0,4,1,0
409822663,16.14254,16.045012,2.983423,3.1562014,345.34567,1.0,1.0,4,1,0
410122484,16.09277,16.045242,3.0248594,3.0866275,345.5932,1.0,1.0,4,1,0
410424312,16.134245,16.052048,2.7348044,3.0396924,345.84344,1.0,1.0,4,1,0
410724434,16.150835,16.060915,2.5586996,2.9470017,346.07852,1.0,1.0,4,1,0
411024211,16.10936,16.069902,2.299722,2.7652383,346.28674,1.0,1.0,4,1,0
411324372,16.150835,16.085192,1.9164349,2.420132,346.4452,1.0,1.0,4,1,0
411624139,16.09277,16.099613,2.0718215,2.2268476,346.60522,1.0,1.0,4,1,0
411937823,16.134245,16.111197,2.3411584,2.2066503,346.79373,1.0,1.0,4,1,0
412237834,16.15913,16.110067,2.8798318,2.3485086,347.00598,1.0,1.0,4,1,0
412537687,16.101065,16.109657,3.0973732,2.585834,347.2501,1.0,1.0,4,1,0
412837801,16.067883,16.105658,3.5324554,2.9017298,347.53082,1.0,1.0,4,1,0
413137698,16.026407,16.09231,3.8950243,3.2287533,347.84006,1.0,1.0,4,1,0
413439442,16.026407,16.075455,4.216157,3.5729196,348.18185,1.0,1.0,4,1,0
413751369,16.001522,16.057074,4.4751344,3.9073884,348.5617,1.0,1.0,4,1,0
414051361,16.026407,16.042965,4.444057,4.1505594,348.93814,1.0,1.0,4,1,0
414351450,15.976636,16.0251,4.7444715,4.3083215,349.3166,1.0,1.0,4,1,0
414651397,15.96834,16.014055,4.7755485,4.4886613,349.71283,1.0,1.0,4,1,0
414952987,15.960045,15.998913,4.8687806,4.6555853,350.1237,1.0,1.0,4,1,0
415252927,15.96834,15.984732,4.837703,4.730795,350.5277,1.0,1.0,4,1,0
415552911,15.910274,15.976405,4.723753,4.7385554,350.924,1.0,1.0,4,1,0
415864849,15.536988,15.96682,4.537289,4.691986,351.32495,0.9996225,1.0000727,4,1,0
416167116,16.009817,15.96537,4.6719575,4.6580215,351.71167,1.0,1.0,4,1,0
416467278,15.843912,15.960608,4.682317,4.633975,352.09442,1.0,1.0,4,1,0
416766498,15.926865,15.959986,4.4854937,4.5649033,352.46622,1.0,1.0,4,1,0
417066495,15.802436,15.959842,4.6512394,4.5559077,352.8443,1.0,1.0,4,1,0
417366494,15.93516,15.953012,4.816985,4.6547256,353.24405,1.0,1.0,4,1,0
417668472,15.926865,15.948426,4.9930897,4.7817154,353.66107,1.0,1.0,4,1,0
417968961,15.885388,15.940772,4.899858,4.879379,354.08038,1.0,1.0,4,1,0
418269082,15.960045,15.935141,5.075963,4.9488406,354.50183,1.0,1.0,4,1,0
418580208,15.868797,15.922083,5.2106314,5.0326557,354.94687,1.0,1.0,4,1,0
418880102,15.852207,15.918796,5.1070404,5.066496,355.37347,1.0,1.0,4,1,0
419181721,15.852207,15.917624,4.9723716,5.0468016,355.7943,1.0,1.0,4,1,0
419481753,15.827321,15.915788,5.096681,5.0395474,356.21292,1.0,1.0,4,1,0
419781650,15.885388,15.9124565,5.024167,5.045554,356.63412,1.0,1.0,4,1,0
420081714,15.918569,15.91516,4.6615987,4.9062877,357.02707,1.0,1.0,4,1,0
420381745,16.001522,15.923876,4.423339,4.7532663,357.4039,1.0,1.0,4,1,0
420683277,15.960045,15.921177,4.4958525,4.6533036,357.78113,1.0,1.0,4,1,0
420983332,16.034702,15.928141,3.9157429,4.4839377,358.135,1.0,1.0,4,1,0
421283286,15.93516,15.942112,3.553174,4.217317,358.45422,1.0,1.0,4,1,0
421583245,16.001522,15.955448,3.4288645,3.9432063,358.74866,1.0,1.0,4,1,0
421895317,16.12595,15.976876,3.3356326,3.7262518,359.04462,1.0,1.0,4,1,0
422184963,16.084475,15.994424,3.1077323,3.4997528,359.29788,1.0,1.0,4,1,0
422496907,16.009817,16.010033,2.890191,3.2516708,359.54907,1.0,1.0,4,1,0
422796987,16.12595,16.031685,2.600136,2.9939923,359.76654,1.0,1.0,4,1,0
423096883,16.101065,16.054478,2.2375672,2.7581937,359.96707,1.0,1.0,4,1,0
423398521,16.208902,16.075611,1.9785895,2.522295,360.14917,1.0,1.0,4,1,0
423698532,16.175722,16.085003,2.051103,2.3024294,360.31363,1.0,1.0,4,1,0
423998480,16.200607,16.099903,1.9060758,2.1917634,360.48187,1.0,1.0,4,1,0
424298469,16.10936,16.110857,2.009667,2.087759,360.64264,1.0,1.0,4,1,0
424598469,16.192312,16.11861,2.020026,2.0651953,360.81137,1.0,1.0,4,1,0
424900102,16.10936,16.12451,2.1132581,2.070791,360.98523,1.0,1.0,4,1,0
425200096,16.192312,16.13391,1.926794,2.0280933,361.14905,1.0,1.0,4,1,0
425500064,16.134245,16.139956,2.5483406,2.074366,361.32578,1.0,1.0,4,1,0
425800094,16.059587,16.133259,2.8487546,2.3236775,361.54974,1.0,1.0,4,1,0
426100132,16.051292,16.12376,3.0145004,2.5641098,361.7937,1.0,1.0,4,1,0
426401674,16.051292,16.11193,2.8798318,2.7877753,362.05634,1.0,1.0,4,1,0
426713702,16.067883,16.097736,3.5013785,3.0571182,362.35254,1.0,1.0,4,1,0
427013676,15.943455,16.077192,3.936461,3.281135,362.652,1.0,1.0,4,1,0
427313725,15.943455,16.056976,3.9778972,3.568308,362.98654,1.0,1.0,4,1,0
427613645,16.018112,16.046633,3.853588,3.6343334,363.2987,1.0,1.0,4,1,0
427915250,15.877092,16.032768,4.0918474,3.804129,363.63806,1.0,1.0,4,1,0
428215305,15.976636,16.016184,4.620162,4.0408,364.00375,1.0,1.0,4,1,0
428515245,15.926865,15.997147,4.910217,4.3184614,364.39862,1.0,1.0,4,1,0
428815346,15.918569,15.984856,4.816985,4.503079,364.7971,1.0,1.0,4,1,0
429115242,15.926865,15.97378,4.920576,4.655635,365.20358,1.0,1.0,4,1,0
429416866,16.042997,15.969023,4.195439,4.6014266,365.58475,1.0,1.0,4,1,0
429716879,16.001522,15.968682,4.2679524,4.4633617,365.9388,1.0,1.0,4,1,0
430029055,15.993226,15.970644,4.2783117,4.385558,366.30954,1.0,1.0,4,1,0
430328944,15.96834,15.973389,4.0089746,4.274869,366.653,1.0,1.0,4,1,0
430630516,16.051292,15.977568,3.6878421,4.0972753,366.97363,1.0,1.0,4,1,0
430930470,15.993226,15.981217,3.7603562,3.9955351,367.29364,1.0,1.0,4,1,0
431230520,16.051292,15.987138,3.6878421,3.9079502,367.60843,1.0,1.0,4,1,0
431530504,15.993226,15.996608,3.4288645,3.7304323,367.89743,1.0,1.0,4,1,0
431830510,16.034702,16.008812,3.1180913,3.5377653,368.1686,1.0,1.0,4,1,0
432132142,16.09277,16.024435,3.087014,3.385772,368.43338,1.0,1.0,4,1,0
432432132,16.076178,16.033598,3.076655,3.2722037,368.69165,1.0,1.0,4,1,0
432732157,16.15913,16.04242,3.076655,3.203333,368.95026,1.0,1.0,4,1,0
433044135,16.059587,16.047806,3.2734778,3.16776,369.21948,1.0,1.0,4,1,0
433344324,16.042997,16.048237,3.2216823,3.1990304,369.4906,1.0,1.0,4,1,0
433645822,16.10936,16.05516,3.1077323,3.153888,369.7491,1.0,1.0,4,1,0
433945684,16.001522,16.059984,3.0145004,3.144077,370.00995,1.0,1.0,4,1,0
434245924,16.200607,16.0701,2.6519315,2.9772277,370.23834,1.0,1.0,4,1,0
434545670,16.101065,16.077095,2.983423,2.8779027,370.4647,1.0,1.0,4,1,0
434846080,16.134245,16.076904,3.0145004,2.9230227,370.71375,1.0,1.0,4,1,0
435147322,16.134245,16.081089,3.1698868,2.9954543,370.97308,1.0,1.0,4,1,0
435447264,15.993226,16.07798,3.449583,3.140643,371.25204,1.0,1.0,4,1,0
435747282,15.976636,16.064526,4.3093886,3.486624,371.5838,1.0,1.0,4,1,0
436047217,16.009817,16.044144,4.713394,3.9114788,371.96295,1.0,1.0,4,1,0
436347424,15.852207,16.020828,4.723753,4.2418065,372.35828,1.0,1.0,4,1,0
436648923,15.976636,16.003216,4.2057977,4.303207,372.72806,1.0,1.0,4,1,0
436948922,16.001522,15.997616,4.2057977,4.2315855,373.07144,1.0,1.0,4,1,0
437260938,16.018112,15.993329,3.8225105,4.108242,373.4131,1.0,1.0,4,1,0
437560930,15.943455,15.993738,3.4392238,3.9263237,373.7199,1.0,1.0,4,1,0
437862467,16.12595,16.013775,2.5276222,3.493049,373.9606,1.0,1.0,4,1,0
438162516,16.14254,16.037325,2.4240313,3.1160133,374.17313,1.0,1.0,4,1,0
438462578,16.059587,16.053825,2.3515174,2.8112488,374.36963,1.0,1.0,4,1,0
438762469,16.167427,16.068373,2.2064898,2.6105933,374.56238,1.0,1.0,4,1,0
439062613,16.184017,16.079048,2.3411584,2.5013826,374.75656,1.0,1.0,4,1,0
439364054,16.084475,16.09364,2.3307993,2.4176881,374.94806,1.0,1.0,4,1,0
439664096,16.134245,16.097263,2.413672,2.3997166,375.1455,1.0,1.0,4,1,0
439964093,15.984931,16.0866,4.4544163,2.8217154,375.4264,1.0,1.0,4,1,0
440276185,16.026407,16.066912,3.957179,3.3357038,375.78165,1.0,1.0,4,1,0
440576150,16.018112,16.053617,3.8225105,3.5105731,376.09677,1.0,1.0,4,1,0
440877690,15.96834,16.04509,3.9882565,3.6832623,376.42664,1.0,1.0,4,1,0
441177669,15.976636,16.033867,4.154002,3.8438182,376.7668,1.0,1.0,4,1,0
441477651,16.026407,16.026367,4.3093886,4.0002446,377.11932,1.0,1.0,4,1,0
441777654,16.001522,16.015928,4.4129796,4.1429424,377.48242,1.0,1.0,4,1,0
442077794,16.001522,16.008677,4.3922615,4.2573633,377.8519,1.0,1.0,4,1,0
442391273,15.95175,16.001053,4.6098027,4.3451395,378.24057,1.0,1.0,4,1,0
442691390,16.009817,15.990428,4.620162,4.442742,378.62314,1.0,1.0,4,1,0
442991357,15.96834,15.98003,4.9827304,4.5757074,379.0204,1.0,1.0,4,1,0
443291278,16.001522,15.97084,4.8791394,4.709109,379.42947,1.0,1.0,4,1,0
443592221,15.96834,15.966332,4.796267,4.745953,379.83194,1.0,1.0,4,1,0
443892968,15.827321,15.965052,4.7755485,4.7571115,380.22995,1.0,1.0,4,1,0
444192949,15.918569,15.9605,4.9516535,4.7983727,380.6342,1.0,1.0,4,1,0
444492971,16.001522,15.9564495,5.1484766,4.9326224,381.06122,1.0,1.0,4,1,0
444792875,15.9019785,15.946482,5.2417083,5.032279,381.49313,1.0,1.0,4,1,0
445094596,15.9019785,15.941492,5.1484766,5.0994167,381.92883,1.0,1.0,4,1,0
445394591,15.860502,15.933896,5.303863,5.1506853,382.36407,1.0,1.0,4,1,0
445694558,15.827321,15.923804,5.324581,5.2113533,382.80585,1.0,1.0,4,1,0
446006606,15.943455,15.924427,5.189913,5.219819,383.25952,1.0,1.0,4,1,0
446306566,15.893683,15.918278,5.479968,5.270461,383.70386,1.0,1.0,4,1,0
446608081,15.76096,15.906854,5.68715,5.383466,384.1688,1.0,1.0,4,1,0
446908046,15.843912,15.896769,5.542123,5.4764504,384.63693,1.0,1.0,4,1,0
447208073,15.93516,15.892214,5.7389455,5.5361686,385.10535,1.0,1.0,4,1,0
447508087,15.860502,15.882695,5.780382,5.6232395,385.58438,1.0,1.0,4,1,0
447808069,15.893683,15.876948,5.6146364,5.658677,386.06082,1.0,1.0,4,1,0
448109689,15.918569,15.877104,5.7285867,5.6705847,386.53705,1.0,1.0,4,1,0
448421678,15.79414,15.872587,5.8632545,5.7023993,387.03534,1.0,1.0,4,1,0
448721695,15.910274,15.8702135,5.780382,5.7238197,387.51465,1.0,1.0,4,1,0
449021734,15.843912,15.87024,5.6975093,5.717836,387.99118,1.0,1.0,4,1,0
449321717,15.860502,15.87089,5.666432,5.651741,388.45416,1.0,1.0,4,1,0
449623522,15.868797,15.871254,5.5524817,5.6057215,388.91855,1.0,1.0,4,1,0
449923346,15.860502,15.870667,5.366018,5.536035,389.37137,1.0,1.0,4,1,0
450223269,15.910274,15.8785715,5.303863,5.445291,389.81366,1.0,1.0,4,1,0
450523343,15.918569,15.8811865,5.189913,5.39577,390.25763,1.0,1.0,4,1,0
450825017,15.96834,15.88667,5.200272,5.312387,390.692,1.0,1.0,4,1,0
451124887,15.918569,15.885781,5.2520676,5.2852106,391.12878,1.0,1.0,4,1,0
451425115,15.893683,15.882361,5.179554,5.2522645,391.56284,1.0,1.0,4,1,0
451724864,15.918569,15.888461,4.7548304,5.1514616,391.9803,1.0,1.0,4,1,0
452037037,15.860502,15.898119,4.5580072,4.9495277,392.38474,1.0,1.0,4,1,0
452338572,15.960045,15.908947,4.29903,4.7674856,392.7627,1.0,1.0,4,1,0
452638481,16.059587,15.926059,3.8432288,4.451646,393.09607,1.0,1.0,4,1,0
452938516,16.042997,15.944793,3.3252733,4.034568,393.3811,1.0,1.0,4,1,0
453238503,16.12595,15.972562,3.2941964,3.7327302,393.65356,1.0,1.0,4,1,0
453538551,16.067883,15.990397,3.3356326,3.5701747,393.9303,1.0,1.0,4,1,0
453840155,16.076178,16.002882,2.9419866,3.411029,394.1978,1.0,1.0,4,1,0
454140227,15.918569,16.01116,3.449583,3.33693,394.4645,1.0,1.0,4,1,0
454452195,16.101065,16.012604,3.6153286,3.412442,394.7691,1.0,1.0,4,1,0
454752119,15.976636,16.014124,3.667124,3.487978,395.06897,1.0,1.0,4,1,0
455052148,15.96834,16.011663,3.9157429,3.601454,395.38257,1.0,1.0,4,1,0
455353778,16.09277,16.013044,3.853588,3.6921031,395.7032,1.0,1.0,4,1,0
455653754,15.960045,16.011206,3.8017924,3.7446113,396.02155,1.0,1.0,4,1,0
455953756,15.926865,16.006525,4.019334,3.8267348,396.35034,1.0,1.0,4,1,0
456253783,16.042997,16.007877,3.7396376,3.883556,396.68207,1.0,1.0,4,1,0
456553790,16.026407,16.014143,3.5324554,3.8072526,396.9908,1.0,1.0,4,1,0
456855409,16.09277,16.024857,2.8073182,3.4775293,397.24207,1.0,1.0,4,1,0
457155368,16.09277,16.036331,2.9109092,3.2918098,397.49274,1.0,1.0,4,1,0
457455427,16.059587,16.046993,2.9212682,3.1450524,397.7364,1.0,1.0,4,1,0
457767357,16.12595,16.058773,2.9212682,3.0132208,397.98123,1.0,1.0,4,1,0
458069079,16.134245,16.065186,2.7555227,2.9461975,398.21997,1.0,1.0,4,1,0
458369272,16.059587,16.073374,3.0248594,2.9418561,398.46396,1.0,1.0,4,1,0
458669709,16.09277,16.0734,3.242401,3.0154846,398.72427,1.0,1.0,4,1,0
458969811,16.12595,16.071653,3.242401,3.115554,398.9965,1.0,1.0,4,1,0
459269063,16.067883,16.066423,3.3977873,3.2114286,399.27493,1.0,1.0,4,1,0
459570552,16.117655,16.059622,3.6774833,3.3522332,399.5725,1.0,1.0,4,1,0
459870748,16.067883,16.053198,3.6256876,3.4655528,399.87573,1.0,1.0,4,1,0
460171077,16.042997,16.044617,3.7189195,3.5571392,400.18378,1.0,1.0,4,1,0
460471250,16.009817,16.037579,3.9778972,3.6843276,400.50696,1.0,1.0,4,1,0
460770463,15.96834,16.031445,4.1125655,3.8460712,400.84607,1.0,1.0,4,1,0
461072112,15.9019785,16.016434,4.2783117,4.0057487,401.20157,1.0,1.0,4,1,0
461372186,16.018112,16.007792,4.2472343,4.0895653,401.553,1.0,1.0,4,1,0
461672412,16.026407,16.002722,4.433698,4.1877074,401.91425,1.0,1.0,4,1,0
461984122,15.976636,15.992127,4.5165706,4.288623,402.29797,1.0,1.0,4,1,0
462284125,15.993226,15.985237,4.402621,4.3533106,402.66956,1.0,1.0,4,1,0
462585673,15.918569,15.98078,4.64088,4.3933587,403.04248,1.0,1.0,4,1,0
462885817,15.868797,15.969945,5.086322,4.587032,403.44775,1.0,1.0,4,1,0
463185649,15.918569,15.960922,5.2417083,4.7924576,403.8726,1.0,1.0,4,1,0
463485665,15.943455,15.950333,5.490327,4.980562,404.3102,1.0,1.0,4,1,0
463786532,15.868797,15.932622,5.604277,5.215375,404.77563,1.0,1.0,4,1,0
464087280,15.868797,15.919436,5.6146364,5.3767166,405.24545,1.0,1.0,4,1,0
464399276,15.819026,15.900346,6.277619,5.617079,405.75876,1.0,1.0,4,1,0
464699314,15.769255,15.874741,6.774856,6.051755,406.317,1.0,1.0,4,1,0
464999359,15.769255,15.848855,6.992398,6.394607,406.89194,1.0,1.0,4,1,0
465300928,15.79414,15.827656,7.334248,6.6743617,407.48553,1.0,1.0,4,1,0
465600980,15.802436,15.804327,7.3860435,6.9342313,408.0976,1.0,1.0,4,1,0
465900924,15.694597,15.786189,7.7796903,7.2354474,408.73788,1.0,1.0,4,1,0
466200856,15.694597,15.765767,7.8625627,7.4387684,409.38208,1.0,1.0,4,1,0
466500890,15.727778,15.753169,7.209939,7.3956947,409.99542,1.0,1.0,4,1,0
466802514,15.785845,15.746964,7.6657395,7.389098,410.61136,1.0,1.0,4,1,0
467102519,15.669712,15.736817,7.696817,7.4765368,411.24554,1.0,1.0,4,1,0
467402492,15.5701685,15.724704,7.883281,7.611105,411.89566,1.0,1.0,4,1,0
467702537,15.611645,15.70407,9.002065,7.9182067,412.59045,1.0,1.0,4,1,0
468002488,15.669712,15.681389,8.701651,8.301247,413.3328,1.0,1.0,4,1,0
468316238,15.669712,15.678856,8.142259,8.167523,414.02832,1.0,1.0,4,1,0
468616226,15.553578,15.670224,8.204412,8.162525,414.70728,1.0,1.0,4,1,0
468916234,15.694597,15.668454,7.8936396,8.105342,415.37622,1.0,1.0,4,1,0
469216242,15.653121,15.661637,7.883281,8.126327,416.05447,1.0,1.0,4,1,0
469516190,15.702892,15.663571,7.0959888,7.8707876,416.67978,1.0,1.0,4,1,0
469817731,15.752664,15.685428,6.3812103,7.3146462,417.22498,1.0,1.0,4,1,0
470117642,15.843912,15.713494,5.749305,6.819517,417.732,1.0,1.0,4,1,0
470429711,15.918569,15.751083,4.816985,6.1776457,418.18936,1.0,1.0,4,1,0
470729670,15.984931,15.790113,3.8743062,5.4671855,418.5592,1.0,1.0,4,1,0
471031245,16.09277,15.833131,3.4288645,4.77653,418.87283,1.0,1.0,4,1,0
471331305,15.976636,15.868531,3.3149145,4.2157,419.1544,1.0,1.0,4,1,0
471631290,15.910274,15.8968,3.6049695,3.9061315,419.44016,1.0,1.0,4,1,0
471931325,16.09277,15.921812,3.076655,3.582537,419.69897,1.0,1.0,4,1,0
472231300,16.026407,15.953726,2.9419866,3.3035939,419.93964,1.0,1.0,4,1,0
